center_name,abbreviation,address,lat,lon
Children's Hospital of Philadelphia,chop,"3500 Civic Center Blvd., Philadelphia, PA 19104",39.9470417,-75.1941169
"Riley Hospital for Children, Indiana University",riley,"575 Riley Hospital Dr Indianapolis, IN 46201",39.7759053,-86.1808182
Seattle Children's Hospital,seattle,"4800 Sand Point Way NE Seattle, WA 98105",47.6626378,-122.2854537
Children's Mercy Hospital,mercy,"2401 Gillham Road, Kansas City, MO 64108",39.0834675,-94.5793016
Emory University,emory,"201 Dowman Dr, Atlanta, GA 30322",33.7894903,-84.3289603
Johns Hopkins University,jhu,"200 N Wolfe St, B-126 Baltimore, MD 21287",39.2946548,-76.5930753
Cleveland Clinc,cc,"9500 Euclid Avenue Cleveland, OH 44195",41.502823,-81.6239107
Levine Children's ,levine,"1001 Blythe Blvd., Suite 200-E Charlotte, NC 28203",35.2049751,-80.841092
St. Louis Children's Hospital,stl,"One Children's Place St. Louis, MO 63110",38.6374922,-90.2674885
Oregon Health and Science University,ohsu,"700 S.W. Campus Drive, Portland, OR 97239",45.4978355,-122.6882339
University of Michigan Health System,umich,"1540 E. Hospital Drive Ann Arbor, MI 48109-4297",42.2820339,-83.7294769
Children's Hospital of Alabama,al,"1600 7th Avenue South, Birmingham, AL 35233",33.5053047,-86.8080575
Cincinnati Children's Hospital Medical Center,cchmc,"3333 Burnet Avenue Cincinnati, OH 45229-3039",39.1404509,-84.5042517
Nationwide Children's Hospital,nat,"555 S. 18th St. Columbus, OH 43205",39.9532657,-82.979289
"University of California, Los Angeles",ucla,"200 UCLA Medical Plaza, Suite 265 Los Angeles, CA 90095 ",34.0650959,-118.4485678
Boston Children's Hospital,bch,"300 Longwood Ave, Boston, MA 02115",42.337631,-71.1072987
Medical College of Wisconsin,mcw,"8915 W. Connell Ct., Milwaukee, WI 53226",43.0423976,-88.0262503
St. Jude's Children's Hospital,stj,"262 Danny Thomas Place, Memphis, TN 38105",35.1535979,-90.045673
Martha Eliot Health Center,mehc,"75 Bickford Street, Jamaica Plain, MA 02130",42.3243404,-71.1050352
Northwestern / Ann & Lurie Children’s Northwestern,nwu,"225 E. Chicago Ave., Chicago, IL 60611 ",41.8962222,-87.6240232
Lurie Children’s Outpatient Center in Northbrook,lcclp,"1131 Techny Rd., Northbrook, IL 60062",42.114789,-87.8139433
Lurie Children’s Outpatient Center in Lincoln Park,lcclp,"467 W Deming Pl, Chicago, IL 60614",41.9287213,-87.6437675
Lurie Children’s Outpatient Center in Uptown,lccu,"4867 N Broadway, Chicago, IL 60640",41.9708717,-87.661022
Dr. Lio's and Dr. Aggarwal's clinics,lac,"363 W Erie St Suite #350, Chicago, IL 60654",41.893666,-87.6404913
Recruited from Eczema Expo 2018,expo,"320 North Dearborn Street, Chicago, IL 60654",41.8882204,-87.6320096
University of California San Francisco Benioff Children's Hospital,ucsf,505 Parnassus Ave San Francisco CA 94143,37.76379,-122.457389
Nicklaus Children's Hospital,nicklaus,3100 SW 62nd Ave Miami FL 33155,25.74234053,-80.2952354
Medical University of South Carolina Children's Hospital,musc,169 Ashley Ave Charleston SC 29425,32.78547782,-79.94669138
Children's National Medical Center,cnmc,111 Michigan Ave NW Washington DC 20010,38.92722744,-77.014579
Children's Hospital of Pittsburgh of UPMC,upmc,4401 Penn Ave Pittsburgh PA 15224,40.46641661,-79.95299036
Methodist LeBonheur Children's Hospital,methodist,848 Adams Ave Memphis TN 38103,35.14289124,-90.03000938
Texas Children's Hospital,texas,6621 Fannin St Houston TX 77030,29.7076517,-95.40121489
Arkansas Children's Hospital,arkansas,1 Children's Way Little Rock AR 72202,34.7389,-92.274633
Primary Children's Medical Center,primary,100 N Mario Capecchi Dr Salt Lake City UT 84132,40.765465,-111.840905
Children's Healthcare of Atlanta,atlanta,1600 Tullie Cir NE Atlanta GA 30329,33.82966884,-84.33027552
Children's Medical Center of Dallas,dallas,1935 Medical District Dr. Dallas TX 75235,32.80875556,-96.8364067
Lucile Packard Children's Hospital Stanford,packard,725 Welch Rd Palo Alto CA 94304,37.43636106,-122.1750507
Toronto Hospital for Sick Children,toronto,555 University Ave Toronto ON M5G 1X8,43.669699,-79.393626
Cook Children's Medical Center,cook,801 Seventh Ave Fort Worth TX 76104,32.73696479,-97.34153662
Children's Hospital & Medical Center - Omaha,omaha,8200 Dodge St Omaha NE 68114,41.25977002,-96.04034823
Children's Hospital Colorado,colorado,13123 E 16th Ave Aurora CO 80045,39.748262,-104.839178
Arnold Palmer Hospital for Children,palmer,92 W Miller St Orlando FL 32806,28.524084,-81.379353
Children's Hospital & Clinics of Minnesota,minn,2525 Chicago Avenue South Minneapolis MN 55404,44.956488,-93.261396
University of Virginia Hospital,uva,1204 W Main St Charlottesville VA 22903,38.032667,-78.498232
Joe Dimaggio Children's Hospital,dimaggio,1005 Joe DiMaggio Drive Hollywood FL 33021,26.020337,-80.178358
Cohen Children's Medical Center of New York at Northwell Health ,cohen,269 76th Avenue New Hyde Park NY 11040,40.755132,-73.708716
Dell Children's Medical Center of Central Texas,dell,4900 Mueller Boulevard Austin TX 78723,30.302958,-97.706802
A.I. duPont Hospital for Children,dupont,1600 Rockland Rd Wilmington DE 19803,39.778732,-75.556624
Rainbow Babies and Children's Hospital,rainbow,11100 Euclid Ave Cleveland OH 44106,41.504317,-81.60584
UNC Hospitals Children's Specialty Clinic,unc,101 Manning Drive Chapel Hill NC 27514,35.904679,-79.050713
Barbara Bush Children's Hospital at Maine Medical,maine,22 Bramhall St Portland ME 04102,43.653371,-70.275146
Central Valley General Hospital,NA,1025 NORTH DOUTY STREET HANFORD CA 93230,36.3361588500001,-119.645667298
Los Robles Hospital & Medical Center - East Campus,NA,150 VIA MERIDA WESTLAKE VILAGE CA 91362,34.1549388720001,-118.815736391
East Los Angeles Doctors Hospital,NA,4060 WHITTIER BOULEVARD LOS ANGELES CA 90023,34.023647302,-118.184164805
Southern California Hospital At Hollywood,NA,6245 DE LONGPRE AVENUE HOLLYWOOD CA 90028,34.0963913570001,-118.325234871
Kindred Hospital Baldwin Park,NA,14148 FRANCISQUITO AVENUE BALDWIN PARK CA 91706,34.063038932,-117.967437788
Lakewood Regional Medical Center,NA,3700 EAST SOUTH STREET LAKEWOOD CA 90712,33.8597066200001,-118.148402965
Monrovia Memorial Hospital,NA,323 SOUTH HELIOTROPE AVENUE MONROVIA CA 91016,34.1487586590001,-117.992667657
Monterey Park Hospital,NA,900 SOUTH ATLANTIC BOULEVARD MONTEREY PARK CA 91754,34.0494660590001,-118.138262231
Star View Adolescent - P H F,NA,4025 WEST 226 STREET TORRANCE CA 90505,33.823914464,-118.356096947
Corona Regional Medical Center-Magnolia,NA,730 MAGNOLIA AVENUE CORONA CA 92879,33.8580833070001,-117.553858035
Modoc Medical Center,NA,228 MC DOWELL STREET ALTURAS CA 96101,41.4800562550001,-120.545743987
Salinas Valley Memorial Hospital,NA,450 EAST ROMIE LANE SALINAS CA 93901,36.659030456,-121.645983804
Corpus Christi Specialty Hospital,NA,1310 THIRD STREET CORPUS CHRISTI TX 78414,27.778510168,-97.396208313
Healthbridge Children'S Hospital-Orange,NA,393 S. TUSTIN STREET ORANGE CA 92866,33.7827271730001,-117.833891865
Healthsouth Tustin Rehabilitation Hospital,NA,14851 YORBA STREET TUSTIN CA 92680,33.7474607400001,-117.831055631
Kindred Hospital Brea,NA,875 NORTH BREA BOULEVARD BREA CA 92621,33.934495886,-117.893948792
Kindred Hospital Westminster,NA,200 HOSPITAL CIRCLE WESTMINSTER CA 92683,33.7635332090001,-117.995255963
Kaweah Delta Mental Health Hospital D/P Aph,NA,1100 SO. AKERS STREET VISALIA CA 93277,36.320843946,-119.348234528
Charlton Memorial Hospital,NA,2449 THIRD STREET FOLKSTON GA 31537,30.845275348,-82.005057392
Dauterive Hospital,NA,600 N LEWIS AVE. NEW IBERIA LA 70563,30.006906977,-91.794523853
Crockett Medical Center,NA,1100 EAST LOOP 304 CROCKETT TX 77954,31.32360364,-95.4388993059999
Central Louisiana State Hospital,NA,242 W SHAMROCK AVE PINEVILLE LA 71360,31.3273789420001,-92.4401351129999
Reeves Memorial Medical Center,NA,409 1ST ST BERNICE LA 71222,32.8239916700001,-92.656648681
Serenity Springs Specialty Hospital,NA,309 N MAIN ST FARMERVILLE LA 71241,32.776127934,-92.4056258479999
Riverbridge Specialty Hospital,NA,209 FRONT ST. VIDALIA LA 71373,31.5611748630001,-91.4260669829999
Citizens Medical Center,NA,7939 HIGHWAY 165 COLUMBIA LA 71418,32.0600399510001,-92.099137669
Brown Memorial Convalescent Center,NA,545 COOK STREET ROYSTON GA 30662,34.2832503650001,-83.118972365
College Medical Center,NA,2776 PACIFIC AVENUE LONG BEACH CA 90806,33.8070928700001,-118.193389929
Kaiser Foundation Hospital - San Leandro,NA,2500 MERCED STREET SAN LEANDRO CA 94577,37.706406198,-122.164654518
Kindred Hospital Paramount,NA,16453 SOUTH COLORADO AVENUE PARAMOUNT CA 90723,33.8846318610001,-118.162267066
Department Of State Hospital-Metropolitan,NA,11401 BLOOMFIELD AVENUE NORWALK CA 90650,33.928031349,-118.067989672
Pinckneyville Community Hospital,NA,5383 STATE ROUTE 154 PINCKNEYVILLE IL 62274,38.084846,-89.3491079999999
St Joseph'S Hospital - Savannah,NA,11705 MERCY BOULEVARD SAVANNAH GA 31419,31.985430321,-81.154556369
Kindred Hospital Rome,NA,320 TURNER MCCALL BOULEVARD ROME GA 30165,34.259713445,-85.1802396319999
Upson Regional Medical Center,NA,801 W GORDON STREET THOMASTON GA 30286,32.886297701,-84.3365069879999
Phoebe Sumter Medical Center,NA,126 HIGHWAY 280 W AMERICUS GA 31719,32.0669623380001,-84.2560501999999
Roosevelt Warm Springs Ltac Hospital,NA,6135 ROOSEVELT HIGHWAY WARM SPRINGS GA 31830,32.887980741,-84.6923449
Southeastern Regional Medical Center,NA,600 CELEBRATE LIFE PKWY NEWNAN GA 30265,33.3848346460001,-84.757746692
Doctors Center Hospital Sanfernando De Carolina,NA,CALLE FERNANDEZ JUNCOS, EDIFICIO JESUS T. PINEIRO CAROLINA PR 984,18.3804430000001,-65.95579
Brown Cty Community Treatment Center,NA,3150 GERSHWIN DRIVE GREEN BAY WI 54311,44.522712261,-87.924827084
Wheaton Franciscan Wi Heart Spine And Ortho,NA,10000 WEST BLUEMOUND ROAD WAUWATOSA WI 53226,43.0358121520001,-88.037265823
Hospital Psiquiatrico De Ninos Yadolescentes,NA,AVE LAUREL 100, URB. SANTA JUANITA BAYAMON PR 956,18.3676556610001,-66.154391259
Compass Behavioral Center Of Alexandria,NA,6410 MASONIC DRIVE ALEXANDRIA LA 71301,31.252191558,-92.481987814
Ocshner St. Anne General Hospital,NA,4608 HIGHWAY 1 RACELAND LA 70394,29.7026714240001,-90.565253898
Feliciana Forensic Facility,NA,4502 HWY 951 JACKSON LA 70748,30.832635688,-91.210660488
United Medical Healthwest-New Orleans,NA,3201 WALL BOULEVARD GRETNA LA 70056,29.865979474,-90.03069185
Ripon Medical Center,NA,845 PARKSIDE ST RIPON WI 54971,43.8343760920001,-88.817751529
Va Medical Center - Providence,NA,830 CHALKSTONE AVE PROVIDENCE RI 2908,41.8321390840001,-71.4331495449999
Tomah Va Medical Center,NA,500 E VETERANS ST TOMAH WI 54660,44.00308068,-90.493319014
Ascension Good Samaritan Hlth Ctr,NA,601 S CENTER AVE MERRILL WI 54452,45.1756325370001,-89.681831276
Restpadd Psychiatric Health Facility,NA,2750 EUREKA WAY REDDING CA 96001,40.586595392,-122.411974107
The Champion Center,NA,303 SOUTH C STREET LOMPOC CA 93436,34.6353716090001,-120.452188325
Stewart Webster Hospital,NA,580 ALSTON STREET RICHLAND GA 31825,32.08616827,-84.660699774
Kaiser Fnd Hosp Ontario Medical Center Campus,NA,2295 S. VINEYARD AVENUE ONTARIO CA 91761,34.0320795600001,-117.60859933
Loma Linda Univ. Med. Center East Campus Hospital,NA,25333 BARTON ROAD LOMA LINDA CA 92354,34.047305635,-117.251636776
St. Bernardine Medical Center,NA,2101 NORTH WATERMAN AVENUE SAN BERNARDINO CA 92404,34.1346723570001,-117.277019975
Kaiser Fnd Hosp - San Diego,NA,4647 ZION AVENUE SAN DIEGO CA 92120,32.7915625750001,-117.095159549
Scripps Green Hospital,NA,10666 NORTH TORREY PINES ROAD LA JOLLA CA 92037,32.896858901,-117.24287107
Scripps Memorial Hospital - Encinitas,NA,354 SANTA FE DRIVE ENCINITAS CA 92024,33.0373447760001,-117.284183383
Sharp Mary Birch Hospital For Women And Newborns,NA,3003 HEALTH CENTER DRIVE SAN DIEGO CA 92123,32.7982957780001,-117.154977819
Uc San Diego Health Hillcrest - Hillcrest Medical Center,NA,200 WEST ARBOR DRIVE SAN DIEGO CA 92103,32.754770233,-117.165731384
California Pacific Med Ctr-California West,NA,3700 CALIFORNIA STREET SAN FRANCISCO CA 94118,37.786509197,-122.456030633
California Pacific Med Ctr-Pacific Campus,NA,2333 BUCHANAN STREET SAN FRANCISCO CA 94115,37.7907045380001,-122.431294533
St. Mary'S Medical Center, San Francisco,NA,450 STANYAN STREET SAN FRANCISCO CA 94117,37.77408876,-122.453751642
Kaiser Fnd Hosp - Santa Rosa,NA,401 BICENTENNIAL WAY SANTA ROSA CA 95403,38.471793006,-122.72706436
Kaiser Fnd Hosp - Rehabilitation Center Vallejo,NA,975 SERENO DRIVE VALLEJO CA 94590,38.12690208,-122.248377304
Woodland Memorial Hospital,NA,1325 COTTONWOOD STREET WOODLAND CA 95695,38.663925024,-121.792145249
Alta Bates Summit Med Ctr-Summit Campus-Summit,NA,3100 SUMMIT STREET OAKLAND CA 94609,37.8201396110001,-122.26400415
San Leandro Hospital,NA,13855 EAST 14TH STREET SAN LEANDRO CA 94578,37.712288347,-122.143493689
St. Rose Hospital,NA,27200 CALAROGA AVENUE HAYWARD CA 94545,37.6334419930001,-122.087912534
St. Joseph'S Behavioral Health Center,NA,2510 NORTH CALIFORNIA STREET STOCKTON CA 95204,37.9765963,-121.291070926
St. Joseph'S Medical Center Of Stockton,NA,1800 NORTH CALIFORNIA STREET STOCKTON CA 95204,37.970467188,-121.288182762
Foothill Presbyterian Hospital-Johnston Memorial,NA,250 SOUTH GRAND AVENUE GLENDORA CA 91741,34.132654576,-117.871259716
Glendale Memorial Hospital And Health Center,NA,1420 SOUTH CENTRAL AVENUE GLENDALE CA 91204,34.128165628,-118.256643169
Kaiser Foundation Los Angeles Medical Center,NA,4867 SUNSET BOULEVARD LOS ANGELES CA 90027,34.0985736490001,-118.294175331
Kaiser Permanente Panorama City,NA,13652 CANTARA STREET PANORAMA CITY CA 91402,34.2185641940001,-118.430219294
Providence Tarzana Medical Center,NA,18321 CLARK STREET TARZANA CA 91356,34.170393216,-118.531904059
Shriners Hospital For Children - L.A.,NA,3160 GENEVA STREET LOS ANGELES CA 90020,34.067204777,-118.286392079
Gardens Regional Hospital And Medical Center,NA,21530 SOUTH PIONEER BOULEVARD HAWAIIAN GARDENS CA 90716,33.833640007,-118.079677951
Adventist Health Clearlake,NA,15630 18TH AVE - HWY 53 CLEARLAKE CA 95422,38.935618855,-122.620144532
Valley Children'S Hospital,NA,9300 VALLEY CHILDREN'S PLACE MADERA CA 93638,36.8840478340001,-119.800242412
Eisenhower Medical Center,NA,39-000 BOB HOPE DRIVE RANCHO MIRAGE CA 92270,33.7633520680001,-116.406241091
Good Samaritan Hospital-San Jose,NA,2425 SAMARITAN DRIVE SAN JOSE CA 95124,37.252078736,-121.946576875
Kaiser Fnd Hosp - Santa Clara,NA,700 LAWRENCE EXPRESSWAY SANTA CLARA CA 95051,37.3354013750001,-121.998873047
Lucile Salter Packard Children'S Hosp. At Stanford,NA,725 WELCH ROAD PALO ALTO CA 94304,37.436004575,-122.175390036
Kaiser Fnd Hosp - Redwood City,NA,1100 VETERANS BOULEVARD REDWOOD CITY CA 94063,37.488847836,-122.223390131
John Muir Medical Center-Concord Campus,NA,2540 EAST STREET CONCORD CA 94520,37.9830895790001,-122.033496796
Sutter Delta Medical Center,NA,3901 LONE TREE WAY ANTIOCH CA 94509,37.9822344500001,-121.802978505
Kaiser Fnd Hosp - Sacramento,NA,2025 MORSE AVENUE SACRAMENTO CA 95825,38.601797751,-121.393144026
Sierra Nevada Memorial Hospital,NA,155 GLASSON WAY GRASS VALLEY CA 95945,39.228016294,-121.047499779
La Palma Intercommunity Hospital,NA,7901 WALKER STREET LA PALMA CA 90623,33.8475141810001,-118.038302332
Saddleback Memorial Medical Center - San Clemente,NA,654 CAMINO DE LOS MARES SAN CLEMENTE CA 92673,33.457065243,-117.650183918
Fremont Medical Center,NA,970 PLUMAS STREET YUBA CITY CA 95991,39.143106319,-121.618012022
Piedmont Mountainside Hospital,NA,1266 EAST CHURCH STREET JASPER GA 30143,34.4582486800001,-84.412912891
St Marys Health Care System,NA,1230 BAXTER STREET ATHENS GA 30606,33.9472213170001,-83.4052524589999
Ridgeview Institute,NA,3995 SOUTH COBB DRIVE SE SMYRNA GA 30080,33.8564432910001,-84.51105483
Westerly Hospital,NA,25 WELLS ST WESTERLY RI 2891,41.3621890750001,-71.825303241
St Marys Hospital Madison,NA,700 SOUTH PARK ST MADISON WI 53715,43.0593384640001,-89.401429215
Aurora Psychiatric Hsptl,NA,1220 DEWEY AVE WAUWATOSA WI 53213,43.046765098,-88.007716433
Columbia Center,NA,13125 N PORT WASHINGTON RD MEQUON WI 53097,43.256677929,-87.926157962
Thedacare Medical Center Berlin,NA,225 MEMORIAL DRIVE BERLIN WI 54923,43.9784771540001,-88.94122636
Mercy Hospital Rogers,NA,2710 RIFE MEDICAL LANE ROGERS AR 72758,36.3089928530001,-94.18297802
St Croix Reg Med Ctr,NA,235 STATE STREET SAINT CROIX FALLS WI 54024,45.4090324310001,-92.642578117
Westfields Hospital,NA,535 HOSPITAL RD NEW RICHMOND WI 54017,45.1177607480001,-92.555500378
St Nicholas Hospital,NA,3100 SUPERIOR AVE SHEBOYGAN WI 53081,43.7623479010001,-87.747537955
Vernon Mem Hsptl,NA,507 SOUTH MAIN ST VIROQUA WI 54665,43.551673973,-90.888391278
Pih Hospital - Downey,NA,11500 BROOKSHIRE AVENUE DOWNEY CA 90241,33.9343517980001,-118.13090396
Providence Little Company Of Mary Transitional Care Center,NA,4320 MARICOPA STREET TORRANCE CA 90503,33.8393481160001,-118.359721519
Loma Linda University Children'S Hospital,NA,11234 ANDERSON STREET LOMA LINDA CA 92354,34.050130832,-117.264094455
Ascension Ne Wisconsin Mercy Campus,NA,500 S OAKWOOD RD OSHKOSH WI 54904,44.0124207170001,-88.601045493
Medstar-Georgetown University Medical Center,NA,3800 RESERVOIR ROAD, NW WASHINGTON DC 20007,38.9119585080001,-77.0752545729999
Advent Health Dade City,NA,13100 FORT KING RD DADE CITY FL 33525,28.3479628600001,-82.2007200799999
Delray Medical Center,NA,5352 LINTON BLVD DELRAY BEACH FL 33484,26.4371928410001,-80.127787747
Poinciana Medical Center,NA,325 CYPRESS PKWY KISSIMMEE FL 34758,28.144780763,-81.476687855
Arbour Fuller Hospital,NA,200 MAY STREET ATTLEBORO MA 2703,41.9240838480001,-71.3611225619999
Arbour Human Resource Institute,NA,227 BABCOCK STREET BROOKLINE MA 2146,42.3507795100001,-71.121242281
Assencion St. Vincent'S Medical Center Clay County,NA,1670 ST. VINCENT'S WAY MIDDLEBURG FL 32068,30.108762428,-81.832688692
Encompass Health Rehabilitation Hospital Of Ocala,NA,2275 SW 22ND LANE OCALA FL 34471,29.165875541,-82.1623349449999
Natchaug Hospital, Inc.,NA,189 STORRS RD MANSFIELD CENTER CT 6250,41.7411039190001,-72.198011482
Encompass Health Rehabilitation Hospital At Martin Health,NA,5850 SE COMMUNITY DR STUART FL 34997,27.133437293,-80.222455815
Shriners' Hospital For Children,NA,51 BLOSSOM ST BOSTON MA 2114,42.3630925480001,-71.066301879
Spaulding Rehabilitation Hospital,NA,300 1ST AVE BOSTON MA 2129,42.3785090760001,-71.049055546
Dr John C Corrigan Mental Health Center,NA,49 HILLSIDE STREET FALL RIVER MA 2720,41.707486913,-71.145714465
Bay Ridge Hospital Beverly,NA,60 GRANITE STREET LYNN MA 1904,42.471620106,-70.956760931
Encompass Health Hospital Of Western Mass,NA,222 STATE STREET LUDLOW MA 1056,42.155775937,-72.472077338
T J Health Columbia,NA,901 WESTLAKE DRIVE COLUMBIA KY 42728,37.0966415730001,-85.29454565
Decatur County Hospital,NA,1405 NORTHWEST CHURCH STREET LEON IA 50144,40.750934665,-93.746940772
Anderson County Hospital,NA,421 SOUTH MAPLE STREET GARNETT KS 66032,38.2798769950001,-95.250338654
Kearny County Hospital,NA,500 THORPE STREET LAKIN KS 67860,37.9465932690001,-101.251929912
Ottawa County Health Center,NA,215 E 8TH STREET MINNEAPOLIS KS 67467,39.1293319640001,-97.7039442509999
Beth Israel Deaconess Hospital - Needham,NA,148 CHESTNUT STREET NEEDHAM MA 2492,42.2771000000001,-71.2368999999999
Vibra Hospital Of Southwestern Massachusetts,NA,4499 ACUSHNET AVENUE NEW BEDFORD MA 2745,41.740725232,-70.945753607
Norwood Hospital,NA,800 WASHINGTON ROAD NORWOOD MA 2062,42.1890000000001,-71.2021
Spaulding Rehabilitation Hospital Cape Cod,NA,311 SERVICE ROAD SANDWICH MA 2537,41.7329844970001,-70.4681028369999
Cambridge Health Alliance - Somerville Campus,NA,230 HIGHLAND AVENUE SOMERVILLE MA 2143,42.39,-71.1093999999999
Shriners' Hospital For Children,NA,516 CAREW ST SPRINGFIELD MA 1104,42.121315027,-72.59237295
Mercy Hospital Fort Smith,NA,7301 ROGERS AVENUE FORT SMITH AR 72903,35.355865991,-94.352054967
Healthsouth Rehabilitation Hospital Of Fort Smith,NA,1401 SOUTH J STREET FORT SMITH AR 72901,35.3739403050001,-94.4187544819999
White County Medical Center - South Campus,NA,1200 SOUTH MAIN STREET SEARCY AR 72143,35.2340944110001,-91.731074311
White County Medical Center - North Campus,NA,3214 EAST RACE AVENUE SEARCY AR 72143,35.2518860440001,-91.697001131
River Valley Medical Center,NA,200 NORTH THIRD STREET DARDANELLE AR 72834,35.220476139,-93.157298166
Baptist Health Medical Center - Arkadelphia,NA,3050 TWIN RIVERS DRIVE ARKADELPHIA AR 71923,34.1229135660001,-93.088824163
Mercy Hospital Berryville,NA,214 CARTER STREET BERRYVILLE AR 72616,36.359062103,-93.551825772
Eureka Springs Hospital,NA,24 NORRIS STREET EUREKA SPRINGS AR 72632,36.400163789,-93.744235921
Southeast Rehabilitation Hospital,NA,2729A HWY 65 & 82 S LAKE VILLAGE AR 71653,33.306293968,-91.289589924
Bradley County Medical Center,NA,404 SOUTH BRADLEY STREET WARREN AR 71671,33.6103641340001,-92.059254885
Five River Medical Center,NA,2801 MEDICAL CENTER DRIVE POCAHONTAS AR 72455,36.2897602730001,-90.99738763
Dallas County Medical Center,NA,201 NORTH CLIFTON STREET FORDYCE AR 71742,33.81085539,-92.425587644
Crittenden Hospital Association,NA,200 WEST TYLER AVENUE WEST MEMPHIS AR 72301,35.1431102350001,-90.1890985109999
Ouachita Co. Medical Center,NA,638 CALIFORNIA AVENUE CAMDEN AR 71701,33.5758211300001,-92.8367393299999
North Arkansas Regional Medical Center,NA,620 NORTH WILLOW HARRISON AR 72601,36.2365313550001,-93.1091393739999
Stone County Medical Center,NA,2106 EAST MAIN STREET, HIGHWAY 14 EAST MOUNTAIN VIEW AR 72560,35.856583126,-92.0828645349999
Piggott Community Hospital,NA,1206 GORDON DUCKWORTH DRIVE PIGGOTT AR 72454,36.390119473,-90.20483796
Baptist Health - Heber Springs,NA,1800 BYPASS ROAD HEBER SPRINGS AR 72543,35.488569576,-92.057981141
St. Vincent Morrilton,NA,4 HOSPITAL DRIVE MORRILTON AR 72110,35.168014912,-92.721351317
Uams Medical Center,NA,4301 WEST MARKHAM STREET LITTLE ROCK AR 72205,34.7490251460001,-92.320137314
Baptist Health Medical Center - North Little Rock,NA,3333 SPRINGHILL DRIVE LITTLE ROCK AR 72117,34.7836548870001,-92.223409163
United Methodist Behavioral Health Systems,NA,1601 MURPHY DRIVE MAUMELLE AR 72113,34.8764356660001,-92.394413249
Leo N. Levi National Arthritis Hospital,NA,300 PROSPECT AVENUE HOT SPRINGS AR 71901,34.5098970650001,-93.057577489
Hot Springs Rehabilitation Center,NA,105 RESERVE STREET HOT SPRINGS AR 71901,34.5121250130001,-93.052607872
Chi St Vincent Hospital Hot Springs,NA,300 WERNER STREET HOT SPRINGS AR 71913,34.46802567,-93.066270414
Baptist Health Medical Center - Hot Spring County,NA,1001 SCHNEIDER DRIVE MALVERN AR 72104,34.358774038,-92.785888401
Arkansas Dept. Of Correction-Diagnostic Unit,NA,7500 CORRECTIONS CIRCLE PINE BLUFF AR 71603,34.2221914250001,-92.082686048
Jefferson Regional Medical Center,NA,1600 WEST 40TH AVENUE PINE BLUFF AR 71603,34.1877346910001,-92.017680195
Healthsouth Rehabilitation Hospital,NA,153 EAST MONTE PAINTER DRIVE FAYETTEVILLE AR 72703,36.109099384,-94.154845038
Memorial Health Univ Med Cen, Inc,NA,4700 WATERS AVENUE SAVANNAH GA 31404,32.030530877,-81.088862423
Vantage Point Of Northwest Arkansas,NA,4253 CROSSOVER ROAD FAYETTEVILLE AR 72703,36.1278907560001,-94.119851426
Northwest Medical Center - Willow Creek Women'S Hospital,NA,4301 GREATHOUSE SPRINGS ROAD SPRINGDALE AR 72762,36.1355102700001,-94.1862192249999
Ascension Ne Wisconsin St. Elizabeth Hospital,NA,1506 S ONEIDA ST APPLETON WI 54915,44.2482512390001,-88.402509675
Mena Regional Health System,NA,311 NORTH MORROW STREET MENA AR 71953,34.589053601,-94.221631243
Mercy Hospital Booneville,NA,880 WEST MAIN STREET BOONEVILLE AR 72927,35.1403219220001,-93.9351706319999
Mercy Hospital Paris,NA,500 EAST ACADEMY PARIS AR 72855,35.289293339,-93.724878549
Crossridge Community Hospital,NA,310 SOUTH FALLS BOULEVARD WYNNE AR 72396,35.219557917,-90.7866405359999
Baptist Health Rehabilitation Institute,NA,9601 BAPTIST HEALTH DRIVE LITTLE ROCK AR 72205,34.74429608,-92.381816086
Ascension Sacred Heart Rehab Inst,NA,2301 NORTH LAKE DRIVE MILWAUKEE WI 53211,43.0614554430001,-87.880384379
Santa Cruz Valley Hospital,NA,4455 SOUTH I-19 FRONTAGE RD GREEN VALLEY AZ 85622,31.8065711130001,-111.010018508
Baptist Health Medical Center-Stuttgart,NA,1703 NORTH BUERKLE ROAD STUTTGART AR 72160,34.5175108030001,-91.558299542
Casey County Hospital,NA,187 WOLFORD AVENUE LIBERTY KY 42539,37.3177168120001,-84.933171913
Marcum And Wallace Memorial Hospital,NA,60 MERCY COURT IRVINE KY 40336,37.7061970980001,-83.977277144
Highlands Regional Medical Center,NA,5000 KENTUCKY ROUTE 321 PRESTONSBURG KY 41653,37.729010056,-82.767320076
Norton Women'S And Kosair Children'S Hospital,NA,4001 DUTCHMANS LANE LOUISVILLE KY 40207,38.235330086,-85.6329369279999
Saints Mary & Elizabeth Hospital,NA,1850 BLUEGRASS AVENUE LOUISVILLE KY 40215,38.178264384,-85.793916414
The Brook - Dupont,NA,1405 BROWNS LANE LOUISVILLE KY 40207,38.235696632,-85.6273409469999
Baptist Health La Grange,NA,1025 NEW MOODY LANE LAGRANGE KY 40031,38.394890194,-85.3760651539999
Adcare Hospital Of Worcester Inc,NA,107 LINCOLN STREET WORCESTER MA 1605,42.2764120840001,-71.794919787
Edith Nourse Rogers Memorial Veterans Hospital,NA,200 SPRINGS ROAD BEDFORD MA 1730,42.5047000000001,-71.2744
Amesbury Health Center,NA,24 MORRILL PLACE AMESBURY MA 1913,42.8484143950001,-70.933380246
Beth Israel Deaconess Medical Center - West Campus,NA,ONE DEACONESS RD BOSTON MA 2215,42.3379,-71.1092
Arbour Hospital, The,NA,49 ROBINWOOD AVENUE BOSTON MA 2130,42.3158184070001,-71.11227314
Beverly Hospital Addison Gilbert Campus,NA,298 WASHINGTON STREET GLOUCESTER MA 1930,42.6255,-70.6806
Vibra Hospital Of Western Mass Central Campus,NA,111 HUNTOON MEMORIAL HIGHWAY LEICESTER MA 1542,42.201899283,-71.8988273429999
Worcester Recovery Center And Hospital,NA,309 BELMONT STREET WORCESTER MA 1604,42.279667187,-71.769066943
Houlton Regional Hospital,NA,20 HARTFORD STREET HOULTON ME 4730,46.1338462430001,-67.843623468
Northern Light Inland Hospital,NA,200 KENNEDY MEMORIAL DRIVE WATERVILLE ME 4901,44.541826482,-69.661491065
Mainegeneral Medical Center,NA,6 EAST CHESTNUT STREET AUGUSTA ME 4330,44.3131197610001,-69.7684343719999
Mainegeneral Medical Center-Seton,NA,30 CHASE AVENUE WATERVILLE ME 4901,44.549192727,-69.658673563
Saint Andrews Hospital And Healthcare Center,NA,6 SAINT ANDREWS LANE BOOTHBAY HARBOR ME 4538,43.850343927,-69.6387693039999
Midmichigan Medical Center-Gladwin,NA,515 QUARTER STREET GLADWIN MI 48624,43.975943671,-84.493887563
Helen Newberry Joy Hospital,NA,502 W HARRIE ST NEWBERRY MI 49868,46.3531800920001,-85.515653738
Munising Memorial Hospital,NA,1500 SAND POINT RD MUNISING MI 49862,46.4252710700001,-86.625185297
Bournewood Hospital,NA,300 SOUTH STREET BROOKLINE MA 2167,42.298318572,-71.1492856839999
Saint Joseph Mercy Livingston Hospital,NA,620 BYRON RD HOWELL MI 48843,42.6155875640001,-83.940990396
Hillsdale Community Health Center,NA,168 S HOWELL STREET HILLSDALE MI 49242,41.9117386880001,-84.633003534
Dmc Surgery Hospital,NA,30671 STEPHENSON HIGHWAY MADISON HEIGHTS MI 48071,42.517887537,-83.120107267
Lakeland Community Hospital, Watervliet,NA,400 MEDICAL PARK DR WATERVLIET MI 49098,42.1848804640001,-86.249925827
Mclaren Central Michigan,NA,1221 SOUTH DRIVE MOUNT PLEASANT MI 48858,43.5991224840001,-84.7614128609999
Spectrum Health Ludington Hospital,NA,1 N ATKINSON DRIVE LUDINGTON MI 49431,43.958147941,-86.430409384
Bronson Lakeview Hospital,NA,408 HAZEN STREET PAW PAW MI 49079,42.221294361,-85.897070061
Deckerville Community Hospital,NA,3559 PINE ST DECKERVILLE MI 48427,43.5281192100001,-82.734249152
Henry Ford Hospital,NA,2799 W GRAND BLVD DETROIT MI 48202,42.3676867830001,-83.08472312
Mayo Clinic Health Sys Albt Le,NA,404 WEST FOUNTAIN STREET ALBERT LEA MN 56007,43.6523606970001,-93.372752304
Mayo Clinic Health Sys Cf,NA,32021 COUNTY 24 BOULEVARD CANNON FALLS MN 55009,44.486164639,-92.903202301
Mayo Clinic Health Sys Fairmnt,NA,800 MEDICAL CTR DRIVE, PO 800 FAIRMONT MN 56031,43.6388014610001,-94.450436999
Mayo Clinic Health System S F,NA,625 JACKSON ST N SPRINGFIELD MN 56087,44.2466191440001,-94.971083614
Harry S. Truman Memorial Veterans Hospital,NA,800 HOSPITAL DR COLUMBIA MO 65201,38.9366672620001,-92.3290578519999
Vibra Hospital Of Central Dakotas,NA,1000 18TH ST NW MANDAN ND 58554,46.841869301,-100.907697713
Jacobson Memorial Hospital & Care Center,NA,601 EAST ST N ELGIN ND 58533,46.407325814,-101.841463455
Community Hospital Of Anderson And Madison County,NA,1515 N MADISON AVE ANDERSON IN 46011,40.130645588,-85.693209184
Memorial Hospital Of South Bend,NA,615 N MICHIGAN ST SOUTH BEND IN 46601,41.684055286,-86.25157885
Complex Care Hospital At Tenaya,NA,2500 NORTH TENAYA LAS VEGAS NV 89128,36.205530766,-115.250356365
Desert Springs Hospital Medical Center,NA,2075 EAST FLAMINGO ROAD LAS VEGAS NV 89119,36.113959578,-115.124505177
Eastern Regional Medical Center,NA,1331 EAST WYOMING AVENUE PHILADELPHIA PA 19124,40.018812978,-75.099464048
Thomas Jefferson University Hospital,NA,111 SOUTH 11TH STREET PHILADELPHIA PA 19107,39.9497083750001,-75.157946045
Penn Presbyterian Medical Center,NA,51 NORTH 39TH STREET PHILADELPHIA PA 19104,39.9588724830001,-75.199263683
St Josephs Hospital,NA,16TH STREET & GIRARD AVENUE PHILADELPHIA PA 19130,39.9714860890001,-75.1631901549999
Va Medical Center - Philadelphia,NA,UNIVERSITY & WOODLAND AVENUES PHILADELPHIA PA 19104,39.94788477,-75.2000750889999
Geisinger Medical Center,NA,100 NORTH ACADEMY AVENUE DANVILLE PA 17822,40.968144964,-76.6052561079999
Northside Hospital - Cherokee,NA,450 NORTHSIDE CHEROKEE BOULEVARD CANTON GA 30115,34.2292380000001,-84.466259
Southwell Medical, A Campus Of Trmc,NA,260 MJ TAYLOR ROAD ADEL GA 31620,31.108198934,-83.427372852
Northern Montana Hospital,NA,30 13TH ST HAVRE MT 59501,48.538077306,-109.685817755
Musc Medical Center,NA,169 ASHLEY AVE CHARLESTON SC 29425,32.785882041,-79.947921358
Veritas Collaborative Georgia,NA,41 PERIMETER CENTER EAST ATLANTA GA 30346,33.924247302,-84.33106507
Page Memorial Hospital,NA,200 MEMORIAL DRIVE LURAY VA 22835,38.6632500000001,-78.468518
Uh Portage - Robinson Memorial Hospital,NA,6847 N CHESTNUT RAVENNA OH 44266,41.1760577540001,-81.2490172989999
Dell Children'S Medical Center,NA,4900 MUELLER BOULEVARD AUSTIN TX 78746,30.303110831,-97.707022459
Cook Children'S Medical Center,NA,801 SEVENTH AVENUE FORT WORTH TX 76104,32.737071728,-97.341405043
Arbor Health Morton General Hospital,NA,521 ADAMS ST MORTON WA 98356,46.55567481,-122.280354393
Indiana Spine Hospital, Llc,NA,13219 N MERIDIAN STREET CARMEL IN 46032,39.9804199480001,-86.1534726249999
Ascension Se Wisconsin Hospital - Elmbrook Campus,NA,19333 W NORTH AVE BROOKFIELD WI 53045,43.0593758960001,-88.1545194289999
Ascension Se Wisconsin Hospital - Franklin Campus,NA,10101 SOUTH 27TH STREET FRANKLIN WI 53132,42.86001258,-87.954068104
Ascension Se Wisconsin Hospital St Joseph,NA,5000 W CHAMBERS ST MILWAUKEE WI 53210,43.074120253,-87.976073404
Ascension St Clares Hospital,NA,3400 MINISTRY PARKWAY WESTON WI 54476,44.890182311,-89.580145988
Ascension St Francis Hospital,NA,3237 S 16TH ST MILWAUKEE WI 53215,42.985657749,-87.9346572919999
Ascension St Marys Hospital,NA,2251 NORTH SHORE DR RHINELANDER WI 54501,45.639470413,-89.374826589
Miami Valley Hospital,NA,ONE WYOMING STREET DAYTON OH 45409,39.744893204,-84.185908608
Ascension St Michaels Hospital,NA,900 ILLINOIS AVE STEVENS POINT WI 54481,44.526431841,-89.5670962149999
Aspirus Riverview Hsptl Assoc,NA,410 DEWEY STREET WISCONSIN RAPIDS WI 54495,44.3817580300001,-89.829889438
Aspirus Wausau Hospital,NA,333 PINE RIDGE BLVD WAUSAU WI 54401,44.9658418510001,-89.667890213
Aurora Lakeland Med Ctr,NA,W3985 CTY RD NN ELKHORN WI 53121,42.6618950270001,-88.496191993
Aurora Med Center-Washington County,NA,1032 E SUMNER ST HARTFORD WI 53027,43.3184058430001,-88.362461562
Aurora Med Ctr Kenosha,NA,10400 75TH ST KENOSHA WI 53142,42.5693968150001,-87.9354650229999
Aurora Med Ctr Manitowoc Cty,NA,5000 MEMORIAL DR TWO RIVERS WI 54241,44.125367829,-87.619456133
Mhp Medical Center,NA,2451 INTELLIPLEX DRIVE SHELBYVILLE IN 46176,39.5603560000001,-85.785817
Covenant Children'S Hospital,NA,4015 22ND PLACE LUBBOCK TX 79410,33.573403254,-101.900592032
Parkview Wabash Hospital,NA,10 JOHN KISSINGER DRIVE WABASH IN 46992,40.8209370000001,-85.823901
Neuro Behavioral Hospital,NA,9330 BROADWAY CROWN POINT IN 46307,41.448803072,-87.337260123
Perry County Memorial Hospital,NA,8885 SR 237 TELL CITY IN 47586,37.9679310000001,-86.731667
St Joseph Health Center,NA,667 EASTLAND AVE SE WARREN OH 44481,41.2309117450001,-80.777155281
Trumbull Memorial Hospital,NA,1350 EAST MARKET STREET WARREN OH 44482,41.235855923,-80.798778258
Providence Hood River Memorial Hospital,NA,810 12TH STREET HOOD RIVER OR 97031,45.7048319680001,-121.52390863
Riverside Medical Center,NA,350 N WALL ST KANKAKEE IL 60901,41.125086857,-87.8818988909999
Blue Mountain Hospital,NA,170 FORD ROAD JOHN DAY OR 97845,44.417112715,-118.959691481
Vassar Brothers Medical Center,NA,45 READE PL POUGHKEEPSIE NY 12601,41.6938589390001,-73.9357861139999
Erie County Medical Center,NA,462 GRIDER ST BUFFALO NY 14215,42.9250771000001,-78.8311457679999
Strong Memorial Hospital,NA,601 ELMWOOD AVE ROCHESTER NY 14607,43.1228088730001,-77.624259428
North Shore University Hospital,NA,300 COMMUNITY DR MANHASSET NY 11030,40.7776359200001,-73.701610944
Edwin Shaw Rehabilitation Institute,NA,330 BROADWAY EAST CUYAHOGA FALLS OH 44221,41.1321462700001,-81.47737547
Nassau University Medical Center,NA,2201 HEMPSTEAD TPKE EAST MEADOW NY 11554,40.7262555130001,-73.553738015
South Nassau Communities Hospital,NA,1 HEALTHY WAY OCEANSIDE NY 11510,40.6509979950001,-73.630839438
University Hospital Suny Health Science Center,NA,750 E ADAMS ST SYRACUSE NY 13210,43.0418973170001,-76.139830463
St. Luke'S Cornwall Hospital - Newburgh Campus,NA,70 DUBOIS ST NEWBURGH NY 12550,41.5034248490001,-74.014565578
Parkland Medical Center,NA,ONE PARKLAND DRIVE DERRY NH 3038,42.8767711740001,-71.3166615379999
Orange Regional Medical Center,NA,707 EAST MAIN STREET MIDDLETOWN NY 10924,41.441914083,-74.368312265
Samaritan Hospital,NA,2215 BURDETT AVE TROY NY 12180,42.733292485,-73.6721639959999
Canton-Potsdam Hospital,NA,50 LEROY ST POTSDAM NY 13676,44.6765106230001,-74.982116316
Peacehealth Peace Island Medical Center,NA,1117 SPRING ST FRIDAY HARBOR WA 98250,48.5267789650001,-123.029601125
Monteflore Nyack Hospital,NA,160 N MIDLAND AVE NYACK NY 10960,41.0962114710001,-73.926018132
Saratoga Hospital,NA,211 CHURCH ST SARATOGA NY 12866,43.085880219,-73.796782733
Northshore University Healthsystem Dba Highland Park Hospital,NA,777 PARK AVENUE WEST HIGHLAND PARK IL 60035,42.1911067670001,-87.808414946
Advocate Condell Medical Center,NA,801 S MILWAUKEE AVE LIBERTYVILLE IL 60048,42.2742350020001,-87.957699742
Advocate Good Shepherd Hospital,NA,450 WEST HIGHWAY 22 BARRINGTON IL 60010,42.1953823710001,-88.1728188709999
Galesburg Cottage Hospital,NA,695 N KELLOGG ST GALESBURG IL 61401,40.95579903,-90.365760264
St Mary Medical Center,NA,3333 NORTH SEMINARY GALESBURG IL 61401,40.986710283,-90.360244917
Midwestern Region Med Center,NA,2520 ELISHA AVENUE ZION IL 60099,42.4492578300001,-87.8278328439999
Kennedy Kreiger Institute,NA,707 N BROADWAY BALTIMORE MD 21205,39.299280975,-76.5928187109999
Mercy Medical Center,NA,301 ST PAUL PLACE BALTIMORE MD 21202,39.2929215520001,-76.612884233
Sinai Hospital Of Baltimore,NA,2401 WEST BELVEDERE AVE BALTIMORE MD 21215,39.352302514,-76.662090147
University Of Maryland Medical Center,NA,22 S GREENE ST BALTIMORE MD 21201,39.287908572,-76.624925928
St. James Hospital,NA,411 CANISTEO ST HORNELL NY 14843,42.3138732730001,-77.6606131039999
Johns Hopkins Bayview Medical Center,NA,4940 EASTERN AVENUE BALTIMORE MD 21224,39.2906788110001,-76.5467781899999
Valley Regional Hospital,NA,243 ELM STREET CLAREMONT NH 3743,43.38458975,-72.340696706
Hampstead Hospital,NA,218 EAST ROAD HAMPSTEAD NH 3841,42.8716633350001,-71.1542070789999
Frisbie Memorial Hospital,NA,11 WHITEHALL ROAD ROCHESTER NH 3867,43.297556596,-70.96016086
Crotched Mountain Rehabilitation Center,NA,1 VERNEY DRIVE GREENFIELD NH 3047,42.9718711,-71.874535911
Southern New Hampshire Medical Center,NA,8 PROSPECT STREET NASHUA NH 3060,42.7562798370001,-71.461374699
St Joseph Hospital,NA,172 KINSLEY ST NASHUA NH 3061,42.749239109,-71.4802120539999
Elliot Hospital City Of Manchester,NA,ONE ELLIOT WAY MANCHESTER NH 3103,42.983954,-71.438
Concord Hospital,NA,250 PLEASANT STREET CONCORD NH 3301,43.1977441440001,-71.5620204049999
Franklin Regional Hospital,NA,15 AIKEN AVE FRANKLIN NH 3235,43.448404259,-71.644552725
University Hospital Stoney Brook Southampton Hospital,NA,240 MEETING HOUSE LANE SOUTHAMPTON NY 11968,40.885059735,-72.379944064
Eastern Long Island Hospital,NA,201 MANOR PL GREENPORT NY 11901,41.1103605700001,-72.3611273189999
Huntington Hospital,NA,270 PARK AVE HUNTINGTON NY 11743,40.8793292410001,-73.416199532
Southside Hospital,NA,301 E MAIN ST BAY SHORE NY 11706,40.7259601480001,-73.2411586379999
Saint Joseph Hospital,NA,ONE ST JOSEPH DRIVE LEXINGTON KY 40504,38.032339732,-84.52329929
Shriners Hospital For Children,NA,1900 RICHMOND RD LEXINGTON KY 40502,38.0227066090001,-84.472698523
Good Samaritan Hospital - West Islip,NA,1000 MONTAUK HIGHWAY WEST ISLIP NY 10901,40.693880129,-73.294394616
Healthalliance Hospital - Broadway Campus,NA,396 BROADWAY KINGSTON NY 12401,41.926658407,-73.994842067
Ellenville Regional Hospital,NA,10 HEALTHY WAY ELLENVILLE NY 12428,41.7326297920001,-74.379034975
Newark-Wayne Community Hospital,NA,1200 DRIVING PARK AVE BOX 111 NEWARK NY 14513,43.060499378,-77.101669912
St. John'S Riverside Hospital - Dobbs Ferry,NA,128 ASHFORD AVE DOBBS FERRY NY 10522,41.014392248,-73.861919649
Phelps Memorial Hospital Center,NA,701 NORTH BROADWAY SLEEPY HOLLOW NY 10591,41.1090070550001,-73.8630877639999
Twin Lakes Regional Medical Center,NA,910 WALLACE AVENUE LEITCHFIELD KY 42754,37.4725153040001,-86.288593089
Our Lady Of Bellefonte Hospital,NA,1000 ST. CHRISTOPHER DRIVE ASHLAND KY 41101,38.5084543190001,-82.692616508
Blythedale Children'S Hospital,NA,95 BRADHURST AVE VALHALLA NY 10595,41.0748475410001,-73.799972237
Passavant Area Hospital,NA,1600 W WALNUT ST JACKSONVILLE IL 62650,39.7460849930001,-90.2604866359999
Brook Lane Health Services,NA,13218 BROOK LANE DRIVE HAGERSTOWN MD 21740,39.676995295,-77.6105994
Garrard County Hospital,NA,308 WEST MAPLE AVENUE LANCASTER KY 40444,37.6220260640001,-84.585157253
Westchester Medical Center,NA,100 WOODS RD VALHALLA NY 10532,41.0860907520001,-73.8049547749999
Montefiore Medical Center - Moses Division,NA,111 E 210TH ST BRONX NY 10466,40.880079256,-73.879826699
Frankfort Regional Medical Center,NA,299 KINGS DAUGHTERS DRIVE FRANKFORT KY 40601,38.160661745,-84.906893698
North Central Bronx Hospital,NA,3424 KOSSUTH AVE BRONX NY 10467,40.8803656010001,-73.881057106
Meritus Medical Center,NA,11116 MEDICAL CAMPUS ROAD HAGERSTOWN MD 21742,39.622192811,-77.682562947
Brookdale Hospital Medical Center,NA,1 BROOKDALE PLAZA BROOKLYN NY 11212,40.655269102,-73.9125565319999
Brooklyn Hospital Center,NA,121 DEKALB AVE BROOKLYN NY 11201,40.6905725080001,-73.9778837649999
Montefiore Westchester Square Medical Center,NA,2475 RAYMOND AVENUE BRONX NY 10461,40.8407431110001,-73.848517531
Kings County Hospital Center,NA,451 CLARKSON AVE BROOKLYN NY 11203,40.656616381,-73.94469079
Coney Island Hospital,NA,2601 OCEAN PARKWAY BROOKLYN NY 11235,40.5854143810001,-73.9653324339999
Nyu Lutheran Medical Center,NA,150 55TH ST BROOKLYN NY 11209,40.6465639940001,-74.020914692
Jacobi Medical Center,NA,1400 PELHAM PARKWAY SOUTH BRONX NY 10036,40.8562983570001,-73.847512147
New York Methodist Hospital,NA,506 6TH ST BROOKLYN NY 11215,40.6677617010001,-73.978990521
Nyu Hospital For Joint Diseases,NA,301 E 17TH ST NEW YORK NY 10003,40.734431687,-73.982999962
New York Presbyterian Morgan Stanley Children'S Hospital,NA,3959 BROADWAY NEW YORK NY 10032,40.8397632590001,-73.941282577
The Addiction Institute Of New York,NA,1000 10TH AVE NEW YORK NY 10019,40.76941213,-73.986808395
Elmhurst Hospital Center,NA,79-01 BROADWAY ELMHURST NY 11373,40.7448273630001,-73.886079665
Jamaica Hospital Medical Center,NA,8900 VAN WYCK EXPRESSWAY JAMAICA NY 11414,40.700103647,-73.816114892
Hoopeston Community Memorial Hospital,NA,701 EAST ORANGE STREET HOOPESTON IL 60942,40.4586898920001,-87.6597332709999
Osf Healthcaresystem Dba Sacred Heart Medical Center,NA,812 N LOGAN DANVILLE IL 61832,40.137832453,-87.6454332439999
The Medical Center At Bowling Green,NA,250 PARK STREET BOWLING GREEN KY 42101,36.9959715050001,-86.42975938
New York Presbyterian Queens,NA,56 45 MAIN ST FLUSHING NY 11355,40.7467722760001,-73.8254163829999
Rock Regional Hospital, Llc,NA,3251 N ROCK RD DERBY KS 67037,37.5827716790001,-97.2469857139999
Glen Cove Hospital,NA,101 ST ANDREWS LANE GLEN COVE NY 11542,40.871001397,-73.622385666
Ephraim Mcdowell Fort Logan Hospital,NA,110 METKER TRAIL STANFORD KY 40484,37.54279432,-84.653036559
Livingston Hospital And Healthcare Services,NA,131 HOSPITAL DRIVE SALEM KY 42078,37.2630531890001,-88.228502459
Montefiore New Rochelle Hospital,NA,16 GUION PLACE NEW ROCHELLE NY 10802,40.912806059,-73.7877626009999
Mount Sinai Beth Israel Brooklyn,NA,3201 KINGS HIGHWAY BROOKLYN NY 11234,40.6188201030001,-73.94290124
New York Presbyterian Hospital - Westchester Division,NA,21 BLOOMINGDALE ROAD WHITE PLAINS NY 10605,41.0275795110001,-73.7539098829999
Harlem Hospital Center,NA,506 LENOX AVENUE NEW YORK NY 10037,40.81426493,-73.939861261
Henry J. Carter Specialty Hospital,NA,1752 PARK AVENUE NEW YORK NY 10035,40.80328511,-73.9416238539999
Saint Barnabas Hospital Health System,NA,4422 THIRD AVENUE BRONX NY 10457,40.852689006,-73.891362876
Ira Davenport Memorial Hospital Inc,NA,7571 STATE ROUTE 54 BATH NY 14810,42.3743292,-77.278906628
St. Mary'S Healthcare - Amsterdam Memorial Campus,NA,4988 STHWY 30 AMSTERDAM NY 12010,42.959065174,-74.187122925
The Burdett Care Center,NA,2215 BURDETT AVENUE TROY NY 12180,42.733357751,-73.672666077
Morris Hospital & Healthcare Centers,NA,150 W HIGH ST MORRIS IL 60450,41.3693259020001,-88.426753306
Swedish American Hospital,NA,1401 EAST STATE STREET ROCKFORD IL 61104,42.265674877,-89.0741395379999
Javon Bea Hospital Dba Mercy Health Hospital Rockton Ave,NA,2400 NORTH ROCKTON AVENUE ROCKFORD IL 61101,42.298427168,-89.098441351
The University Of Vermont Health Network - Champlain Valley Physicians Hospital,NA,75 BEEKMAN ST PLATTSBURGH NY 12901,44.7004430440001,-73.469419865
Montefiore Medical Center-Wakefield Hospital,NA,600 EAST 233RD STREET BRONX NY 10466,40.893697171,-73.861191189
Holy Cross Hospital,NA,1500 FOREST GLEN ROAD SILVER SPRING MD 20910,39.0147221440001,-77.035735227
Silver Cross Hospital And Medical Centers,NA,1900 SILVER CROSS BLVD NEW LENOX IL 60451,41.54468733,-87.98343597
Adventist Bolingbrook Hospital,NA,500 REMINGTON BOULEVARD BOLINGBROOK IL 60440,41.6808649600001,-88.0846514409999
Fort Washington Hospital,NA,11711 LIVINGSTON ROAD FORT WASHINGTON MD 20744,38.728563368,-76.9927016889999
Mount Sinai St. Luke'S,NA,1111 AMSTERDAM AVENUE NEW YORK NY 10025,40.804922543,-73.961590352
New York Presbyterian Hospital - Columbia Presbyterian Center,NA,622 WEST 168TH STREET NEW YORK NY 10032,40.841052882,-73.940686522
New York Presbyterian Hospital - New York Weill Cornell Center,NA,525 EAST 68TH STREET NEW YORK NY 10021,40.7645499400001,-73.954332262
Nyulmc - Cobble Hill,NA,83 AMITY STREET BROOKLYN NY 11201,40.6898734210001,-73.997765714
Urmc Strong West,NA,156 WEST AVENUE BROCKPORT NY 14420,43.221611782,-77.944575109
Women And Children'S Hospital Of Buffalo,NA,219 BRYANT STREET BUFFALO NY 14222,42.9092085090001,-78.8752090149999
Nyu Winthrop-University Hospital,NA,259 FIRST STREET MINEOLA NY 11501,40.7406974780001,-73.6430083989999
Upmc Chautauqua At Wca,NA,51 GLASGOW AVENUE JAMESTOWN NY 14701,42.0911672400001,-79.245365836
Sjrh - Park Care Pavilion,NA,2 PARK AVENUE YONKERS NY 10703,40.9403860690001,-73.8916523939999
Va Medical Center - Canandaigua,NA,400 FORT HILL AVE CANANDAIGUA NY 14424,42.9012374390001,-77.2696360639999
Four Winds Hospital Westchester,NA,800 CROSS RIVER ROAD KATONAH NY 10536,41.2663913170001,-73.620717514
Four Winds Hospital Saratoga,NA,30 CRESCENT AVENUE SARATOGA SPRINGS NY 12866,43.058130469,-73.78539606
Methodist Hospital,NA,1305 N ELM STREET HENDERSON KY 42420,37.854974612,-87.583199016
Crossroads Community Hospital,NA,8 DOCTORS PARK ROAD MOUNT VERNON IL 62864,38.3116451610001,-88.93688084
Copley Memorial Hospital Inc Dba Rush Copley Medical Center,NA,2000 OGDEN AVENUE AURORA IL 60504,41.7290071840001,-88.270615983
Delnor Community Hospital,NA,300 RANDALL RD GENEVA IL 60134,41.886614965,-88.343450363
Presence Central And Suburban Hospitals Network Dba Presence Mercy Medical Center,NA,1325 N HIGHLAND AVENUE AURORA IL 60506,41.7858095500001,-88.325769044
Bluegrass Community Hospital,NA,360 AMSDEN AVE. VERSAILLES KY 40383,38.0547656890001,-84.7237883399999
James J. Peters Va Medical Center,NA,130 W KINGSBRIDGE RD BRONX NY 10468,40.867348658,-73.906382086
Heart Of Texas Memorial Hospital,NA,2008 NINE RD BRADY TX 76825,31.1176884980001,-99.346853612
Jackson County Hospital,NA,1013 SOUTH WELLS STREET EDNA TX 77957,28.9691047490001,-96.63588688
Schleicher County Medical Center,NA,400 MURCHISON AVENUE ELDORADO TX 76936,30.863001943,-100.60299406
Taylor Regional Hospital,NA,1700 OLD LEBANON ROAD CAMPBELLSVILLE KY 42718,37.3663517620001,-85.338106556
Cochran Memorial Hospital,NA,201 EAST GRANT AVENUE MORTON TX 79346,33.7197375100001,-102.757522271
Western Maryland Regional Medical Center,NA,12500 WILLOWBROOK ROAD CUMBERLAND MD 21502,39.6478306720001,-78.733241499
Anne Arundel Medical Center,NA,2001 MEDICAL PARKWAY ANNAPOLIS MD 21401,38.98992672,-76.5346124329999
Kirby Medical Center,NA,1000 MEDICAL CENTER DRIVE MONTICELLO IL 61856,40.06044805,-88.558821704
Saint Francis Medical Center,NA,530 NE GLEN OAK AVE PEORIA IL 61603,40.702746817,-89.591965425
Blessing Care Corporation Illini Community Hospital,NA,640 W WASHINGTON PITTSFIELD IL 62363,39.6074434780001,-90.815132697
Muscogee (Creek) Nation Physical Rehabilitation Center,NA,900 EAST AIRPORT ROAD OKMULGEE OK 74447,35.6675323540001,-95.960331813
Blessing Hospital,NA,BROADWAY AT 11TH STREET QUINCY IL 62301,39.936358882,-91.399457202
Valir Rehabilitation Hospital Of Okc,NA,700 NW SEVENTH STREET OKLAHOMA CITY OK 73102,35.474896238,-97.5249415819999
Methodist Medical Center Of Illinois,NA,221 N E GLEN OAK AVE PEORIA IL 61606,40.7003057960001,-89.594916836
Rehabilitation Institute Of Chicago,NA,345 EAST SUPERIOR STREET CHICAGO IL 60611,41.895454536,-87.618334799
Riveredge Hospital,NA,8311 WEST ROOSEVELT ROAD FOREST  PARK IL 60130,41.864893065,-87.828282507
Northshore University Health System Skokie Hospital,NA,9600 GROSS POINT ROAD SKOKIE IL 60076,42.056416062,-87.7407096109999
Rush Oak Park Hospital,NA,520 S MAPLE AVE OAK PARK IL 60304,41.878618014,-87.803351533
Adventist Midwest Health Dba Adventist La Grange Memorial Hospital,NA,5101 S WILLOW SPRINGS RD LA GRANGE IL 60525,41.7970605520001,-87.886394926
Gottleb Memorial Hospital Loyola Health System At Gottlieb,NA,701 WEST NORTH AVE MELROSE PARK IL 60160,41.910529781,-87.842815074
Christus Mother Frances Hospital - Winnsboro,NA,719 WEST COKE ROAD WINNSBORO TX 75494,32.9445383180001,-95.307279633
Yoakum Community Hospital,NA,1200 CARL RAMERT DRIVE YOAKUM TX 77995,29.30695852,-97.129159089
Loretto Hospital,NA,645 SOUTH CENTRAL AVE CHICAGO IL 60644,41.8721245730001,-87.76408865
The University Of Chicago Medical Center,NA,5841 SOUTH MARYLAND CHICAGO IL 60637,41.788746851,-87.604337126
Golden Plains Community Hospital,NA,100 MEDICAL DRIVE BORGER TX 79007,35.655138191,-101.409180667
Thorek Memorial Hospital,NA,850 W IRVING PARK RD CHICAGO IL 60613,41.9551890160001,-87.6516212399999
John H Stroger Jr Hospital,NA,1901 W HARRISON ST CHICAGO IL 60612,41.8723348670001,-87.674398458
Mercy Hospital And Medical Center,NA,2525 S MICHIGAN AVE CHICAGO IL 60616,41.8468895830001,-87.621491598
Little Company Of Mary Hospital,NA,2800 W 95TH ST EVERGREEN PARK IL 60805,41.721464999,-87.693028878
Advocate Northside Health Network Dba Illinois Masonic Medical Center,NA,836 WEST WELLINGTON AVENUE CHICAGO IL 60657,41.9367408480001,-87.651371663
Methodist Hospital Of Chicago,NA,5025 N PAULINA STREET CHICAGO IL 60640,41.973086773,-87.670743057
Advocate Christ Hospital & Medical Center,NA,4440 W 95TH STREET OAK LAWN IL 60453,41.7216945170001,-87.732442245
Lutheran General Hospital Advocate,NA,1775 DEMPSTER ST PARK RIDGE IL 60068,42.038802226,-87.847334384
Northwest Community Hospital,NA,800 W CENTRAL ROAD ARLINGTON HEIGHTS IL 60005,42.0682911060001,-87.992181634
Alexian Brothers Medical Center,NA,800 W BIESTERFIELD RD ELK GROVE VILLAGE IL 60007,42.0046568230001,-88.0168922779999
Northwestern Memorial Hospital,NA,251 E HURON ST CHICAGO IL 60611,41.894607713,-87.621024366
St Alexius Medical Center,NA,1555 N BARRINGTON RD HOFFMAN ESTATES IL 60169,42.052928459,-88.1410342249999
Provident Hospital Of Cook County,NA,500 E 51ST ST CHICAGO IL 60615,41.8026750130001,-87.613323872
Russell County Hospital,NA,153 DOWELL RD., PO BOX 1610 RUSSELL SPRINGS KY 42642,37.05758045,-85.067352806
Raleigh General Hospital,NA,1710 HARPER ROAD BECKLEY WV 25801,37.787554395,-81.201931585
Rockcastle Regional Hospital & Respiratory Care Center,NA,145 NEWCOMB AVE MT VERNON KY 40456,37.3579643200001,-84.3359033199999
Union Hospital Of Cecil County,NA,106 BOW STREET ELKTON MD 21921,39.608514525,-75.831967046
Baptist Health Louisville,NA,4000 KRESGE WAY LOUISVILLE KY 40207,38.238118248,-85.637144295
Jewish Hospital & St. Mary'S Healthcare,NA,200 ABRAHAM FLEXNER WAY LOUISVILLE KY 40202,38.2491316470001,-85.751189499
Kindred Hospital - Louisville,NA,1313 SAINT ANTHONY PLACE LOUISVILLE KY 40204,38.2426565160001,-85.731237729
Our Lady Of Peace,NA,2020 NEWBURG RD LOUISVILLE KY 40205,38.2188090000001,-85.71059213
University Of Louisville Hospital,NA,530 S JACKSON ST LOUISVILLE KY 40202,38.248322961,-85.7443359649999
Paul B Hall Regional Medical Center,NA,625 JAMES S TRIMBLE BLVD PAINTSVILLE KY 41240,37.8155109360001,-82.813051295
Jefferson Medical Center,NA,300 SOUTH PRESTON STREET RANSON WV 25438,39.2959891360001,-77.858759055
Plateau Medical Center,NA,430 MAIN STREET OAK HILL WV 25901,37.971276577,-81.149780587
Minnie Hamilton Health Care Center,NA,186 HOSPITAL DRIVE GRANTSVILLE WV 26147,38.9227600680001,-81.0924929559999
St Mary'S Medical Center,NA,2900 1ST AVENUE HUNTINGTON WV 25701,38.430550451,-82.4004127269999
Princeton Community Hospital,NA,122 12TH STREET, PO BOX 1369 PRINCETON WV 24740,37.3627189270001,-81.113010848
Pleasant Valley Hospital,NA,2520 VALLEY DRIVE POINT PLEASANT WV 25550,38.8690654100001,-82.123223867
Boone Memorial Hospital,NA,701 MADISON AVENUE MADISON WV 25130,38.0482000000001,-81.80619
Pocahontas Memorial Hospital,NA,150 DUNCAN RD, RR BOX 52 WEST BUCKEYE WV 24924,38.2008291170001,-80.108978397
Preston Memorial Hospital,NA,300 S PRICE STREET KINGWOOD WV 26537,39.46507784,-79.687857503
William R Sharpe Jr Hospital,NA,936 SHARPE HOSPITAL ROAD WESTON WV 26452,39.0411492700001,-80.496304267
University Of Kansas Hospital Transplant Center,NA,4000 CAMPBRIDGE ST KANSAS CITY KS 66160,39.055827304,-94.6089825
St Joseph Hospital,NA,1 AMALIA DRIVE BUCKHANNON WV 26201,38.9914120460001,-80.2363892989999
Berkeley Medical Center,NA,2500 HOSPITAL DRIVE MARTINSBURG WV 25401,39.476243465,-77.9802371769999
West Virginia University Hospitals,NA,1 MEDICAL CENTER DRIVE MORGANTOWN WV 26506,39.6544225740001,-79.958022141
Reynolds Memorial Hospital,NA,800 WHEELING AVE GLEN DALE WV 26038,39.946141927,-80.752437545
St Anthonys Memorial Hospital,NA,503 N MAPLE STREET EFFINGHAM IL 62401,39.1257760170001,-88.5501252189999
Meadowview Regional Medical Center,NA,989 MEDICAL PARK DRIVE MAYSVILLE KY 41056,38.6399743760001,-83.808105166
St. Elizabeth Florence,NA,4900 HOUSTON ROAD FLORENCE KY 41042,39.0165918180001,-84.630767205
Pineville Community Hospital,NA,850 RIVERVIEW AVE PINEVILLE KY 40977,36.76291694,-83.707768726
Genesis Health System Dba Genesis Medical Center - Silvis,NA,801 ILLINI DRIVE SILVIS IL 61282,41.4943257400001,-90.418416114
Trinity Medical Center(West) Dba Trinity Rock Island,NA,2701 17TH ST ROCK ISLAND IL 61201,41.482615267,-90.570418129
Memorial Medical Center,NA,701 N FIRST ST SPRINGFIELD IL 62702,39.80936884,-89.6557791019999
Ephraim Mcdowell Regional Medical Center,NA,217 SOUTH THIRD STREET DANVILLE KY 40422,37.6438733050001,-84.773001139
The Carle Foundation Hospital,NA,611 WEST PARK STREET URBANA IL 61801,40.117041763,-88.2149486599999
Spooner Hospital Sys,NA,819 ASH ST SPOONER WI 54801,45.825597325,-91.896346513
Spring View Hospital,NA,320 LORETTO ROAD LEBANON KY 40033,37.5698288780001,-85.2614564089999
Owensboro Health Muhlenberg Community Hospital,NA,440 HOPKINSVILLE STREET GREENVILLE KY 42345,37.1965353910001,-87.189294499
Hutchings Psychiatric Center,NA,620 MADISON STREET SYRACUSE NY 13210,43.045193754,-76.140544451
Caldwell Medical Center,NA,100 MEDICAL CENTER DRIVE PRINCETON KY 42445,37.113674313,-87.909600476
T J Samson Community Hospital,NA,1301 NORTH RACE STREET GLASGOW KY 42141,37.011392389,-85.9045139739999
Rolling Hills Hospital,NA,1000 ROLLING HILLS LANE ADA OK 74820,34.7845956670001,-96.627450782
Fairview Regional Medical Center,NA,523 EAST STATE ROAD FAIRVIEW OK 73737,36.2759877820001,-98.474523405
Latimer County General Hospital,NA,806 HIGHWAY 2 NORTH WILBURTON OK 74578,34.91947628,-95.3208557309999
Mason District Hospital,NA,615 NORTH PROMENADE STREET, P O BOX 530 HAVANA IL 62644,40.305423138,-90.0540906959999
Western State Hospital,NA,2400 RUSSELLVILLE ROAD HOPKINSVILLE KY 42240,36.864669216,-87.451266717
Pikeville Medical Center,NA,911 BYPASS RD PIKEVILLE KY 41501,37.471241666,-82.522247497
Ou Medical Center -The Children'S Hospital,NA,1200 CHILDREN'S AVE OKLAHOMA CITY OK 73104,35.4816532400001,-97.496105013
Hans P Peterson Memorial Hospital,NA,503 WEST PINE STREET PHILIP SD 57567,44.0398087630001,-101.671476777
Mcalester Regional Health Center,NA,ONE CLARK BASS BOULEVARD MCALESTER OK 74501,34.9368817440001,-95.750925292
Oklahoma Spine Hospital,NA,14101 PARKWAY COMMONS DRIVE OKLAHOMA CITY OK 73134,35.6145013180001,-97.5832999959999
St Joseph Medical Center,NA,2200 E WASHINGTON BLOOMINGTON IL 61701,40.4826765880001,-88.955562196
Hazard Arh Regional Medical Center,NA,100 MEDICAL CENTER DRIVE HAZARD KY 41701,37.2782979460001,-83.227882237
Tug Valley Arh Regional Medical Center,NA,260 HOSPITAL DRIVE SOUTH WILLIAMSON KY 41503,37.6765106440001,-82.297022722
Decatur Memorial Hospital,NA,2300 NORTH EDWARD STREET DECATUR IL 62526,39.8672533980001,-88.960982947
Northwestern Medicine Mchenry Woodstock Huntley Hospital,NA,4201 MEDICAL CENTER DRIVE MCHENRY IL 60050,42.31779814,-88.279468003
Advocate Health And Hospitals Corporation Dba Advocate Bromenn Healthcare,NA,1304 FRANKLIN AVENUE NORMAL IL 61761,40.496970979,-88.9908500019999
Memorial Hospital,NA,3073 WHITE MOUNTAIN HIGHWAY NORTH CONWAY NH 3860,44.061812687,-71.136853803
Cheshire Medical Center,NA,580 COURT STREET KEENE NH 3431,42.9488432030001,-72.2919009
Littleton Regional Healthcare,NA,600 ST. JOHNSBURY ROAD LITTLETON NH 3561,44.317933877,-71.825559036
Alice Peck Day Memorial Hospital,NA,10 ALICE PECK DAY DRIVE LEBANON NH 3766,43.638447731,-72.286002567
Integris Grove Hospital,NA,1001 EAST 18TH STREET GROVE OK 74344,36.581287354,-94.758576687
Lakes Region General Hospital,NA,80 HIGHLAND STREET LACONIA NH 3246,43.5285555460001,-71.4631810129999
Ach Behavioral Health And Wellness Services,NA,821 FIELDCREST DRIVE CAMBRIDGE MD 21613,38.5494536260001,-76.0579912319999
Integris Bass Baptist Health Center,NA,600 SOUTH MONROE STREET ENID OK 73702,36.3901652910001,-97.887425579
Jackson County Memorial Hospital,NA,1200 EAST PECAN STREET ALTUS OK 73521,34.635239745,-99.31803877
Haskell County Community Hospital,NA,401 NORTHWEST 'H' STREET STIGLER OK 74462,35.2611650690001,-95.128751584
Adventist Midwest Health Dba Adventist Hinsdale Hospital,NA,120 NORTH OAK ST HINSDALE IL 60521,41.80591716,-87.9212213179999
Elmhurst Memorial Hospital,NA,155 EAST BRUSH HILL ROAD ELMHURST IL 60126,41.863761991,-87.935579144
Central Dupage Hospital,NA,25 NORTH WINFIELD ROAD WINFIELD IL 60190,41.8735205630001,-88.155758695
Adventist Glenoaks,NA,701 WINTHROP AVENUE GLENDALE HEIGHTS IL 60139,41.9148248980001,-88.056976526
Alliancehealth Woodward,NA,900 17TH STREET WOODWARD OK 73801,36.4373979120001,-99.400337222
Sun Behavioral Health,NA,820 DOLWICK DRIVE ERLANGER KY 41018,39.038841,-84.594436
Southwestern Medical Center,NA,5602 SW LEE BOULEVARD LAWTON OK 73505,34.592635247,-98.4627401929999
Jim Taliaferro Community Mental Health Center,NA,602 SW 38TH STREET LAWTON OK 73505,34.6031011850001,-98.438619278
Drumright Regional Hospital,NA,610 W BYPASS DRUMRIGHT OK 74030,35.998106787,-96.605966608
Stillwater Medical Center,NA,1323 WEST SIXTH AVENUE STILLWATER OK 74074,36.115011098,-97.0751020659999
Choctaw Memorial Hospital,NA,1405 EAST KIRK STREET HUGO OK 74743,34.0123720990001,-95.496650093
Norman Specialty Hospital,NA,1210 WEST ROBINSON STREET NORMAN OK 73069,35.2323598950001,-97.460152335
Alliancehealth Seminole,NA,2401 WRANGLER BOULEVARD SEMINOLE OK 74868,35.244974991,-96.698409235
Hillcrest Hospital South,NA,8801 SOUTH 101ST EAST AVENUE TULSA OK 74133,36.035315504,-95.863559858
Hillcrest Medical Center,NA,1120 SOUTH UTICA TULSA OK 74104,36.147161182,-95.968510827
Mercy Hospital Ardmore,NA,1011 14TH AVENUE NW ARDMORE OK 73401,34.1889675840001,-97.1408427539999
Mercy Hospital Healdton,NA,3462 HOSPITAL RD HEALDTON OK 73438,34.2228684200001,-97.4914664789999
Aurora Med Ctr Oshkosh,NA,855 N WESTHAVEN DRIVE OSHKOSH WI 54904,44.0277467770001,-88.595218368
Aurora Medical Center,NA,975 PORT WASHINGTON ROAD GRAFTON WI 53024,43.3236520900001,-87.928171536
Laureate Psychiatric Clinic And Hospital,NA,6655 SOUTH YALE AVENUE TULSA OK 74136,36.0659550130001,-95.918593071
Hillcrest Hospital Claremore,NA,1202 NORTH MUSKOGEE PLACE CLAREMORE OK 74017,36.3226445400001,-95.60467518
Great Plains Regional Medical Center,NA,1801 WEST THIRD STREET ELK CITY OK 73644,35.413983063,-99.426251023
Wagoner Community Hospital,NA,1200 WEST CHEROKEE STREET WAGONER OK 74467,35.9615239550001,-95.392430503
Aurora Medical Center Bay Area,NA,3003 UNIVERSITY DR MARINETTE WI 54143,45.0719686800001,-87.617696527
Muscogee (Creek) Nation Medical Center,NA,1401 MORRIS DRIVE OKMULGEE OK 74447,35.6111880240001,-95.952484996
Aurora Medical Center Summit,NA,36500 AURORA DRIVE SUMMIT WI 53066,43.0659120560001,-88.467578653
Aurora Sheboygan Mem Med Ctr,NA,2629 N 7TH ST SHEBOYGAN WI 53083,43.7733868460001,-87.709995072
Saint Francis Hospital South,NA,10501 EAST 91ST STREEET TULSA OK 74133,36.033582251,-95.857320101
Duncan Regional Hospital,NA,1407 NORTH WHISENANT DRIVE DUNCAN OK 73534,34.5203175290001,-97.975948004
Mercy Hospital Ada,NA,430 NORTH MONTA VISTA ADA OK 74820,34.7782702540001,-96.6333675769999
Frederick Medical Clinic,NA,319 EAST JOSEPHINE AVENUE FREDERICK OK 73542,34.403774453,-99.013654803
Starr Regional Medical Center Etowah,NA,886 HIGHWAY 411 NORTH ETOWAH TN 37331,35.3450986180001,-84.522719356
Androscoggin Valley Hospital,NA,59 PAGE HILL RD BERLIN NH 3570,44.486950902,-71.155253902
Weeks Medical Center,NA,173 MIDDLE STREET LANCASTER NH 3584,44.486230365,-71.554339929
St Francis Hospital,NA,1215 FRANCISCAN DR LITCHFIELD IL 62056,39.1812135550001,-89.639055748
Osf Holy Family Medical Center,NA,1000 W HARLEM AVENUE MONMOUTH IL 61462,40.922252932,-90.658301335
Morrison Community Hospital,NA,303 N JACKSON STREET MORRISON IL 61270,41.80893488,-89.957878082
Sarah D Culbertson Memorial Hospital,NA,238 SOUTH CONGRESS STREET RUSHVILLE IL 62681,40.118162797,-90.5643155
Abraham Lincoln Memorial Hospital,NA,200 STAHLHUT DRIVE LINCOLN IL 62656,40.1537865020001,-89.389893553
Massac Memorial Hospital,NA,28 CHICK STREET, PO BOX 850 METROPOLIS IL 62960,37.166374757,-88.740048665
Paris Community Hospital,NA,721 E COURT STREET PARIS IL 61944,39.606840038,-87.677654702
Central Peninsula General Hospital,NA,250 HOSPITAL PLACE SOLDOTNA AK 99669,60.493169052,-151.077826958
Atlanta Va Health Medical Center,NA,1670 CLAIRMONT ROAD DECATUR GA 30033,33.801861,-84.311425
Piedmont Athens Regional Med Center,NA,1199 PRINCE AVENUE ATHENS GA 30606,33.961292466,-83.397945072
Beckley Arh Hospital,NA,306 STANAFORD ROAD BECKLEY WV 25801,37.798832695,-81.168183745
Owensboro Health,NA,811 E PARRISH AVE OWENSBORO KY 42303,37.766669,-87.100834
Fairbanks Memorial Hospital,NA,1650 COWLES STREET FAIRBANKS AK 99701,64.831744708,-147.739392817
Mat-Su Regional Medical Center,NA,2500 S. WOODWORTH LOOP PALMER AK 99645,61.5628935770001,-149.258311157
Providence Valdez Medical Center,NA,911 MEALS AVENUE VALDEZ AK 99686,61.1365337820001,-146.346551668
Maniilaq Medical Center,NA,436 5TH AVE. KOTZEBUE AK 99752,66.8960016240001,-162.586826252
Mt Edgecumbe Hospital - Searhc,NA,222 TONGASS DRIVE SITKA AK 99835,57.051565564,-135.354876741
Jackson County Hospital,NA,620 HOSPITAL DRIVE GAINESBORO TN 38562,36.3488070600001,-85.656244273
Maury Regional Hospital,NA,1224 TROTWOOD AVENUE COLUMBIA TN 38401,35.6071638650001,-87.0668911079999
West Tennessee Healthcare North Hospital,NA,367 HOSPITAL BLVD. JACKSON TN 38305,35.6844471110001,-88.854048475
Great Falls Clinic Medical Center,NA,1411 9TH ST SOUTH GREAT FALLS MT 59405,47.489354518,-111.291352607
Wyoming State Hospital,NA,831 HIGHWAY 150 SOUTH EVANSTON WY 82931,41.2638287170001,-110.947098227
Henry County Medical Center,NA,301 TYSON AVENUE PARIS TN 38242,36.2965426920001,-88.310304585
Ephraim Mcdowell James B. Haggin Memorial Hospital,NA,464 LINDEN AVE. HARRODSBURG KY 40330,37.7570638770001,-84.848739113
Methodist Medical Center Of Oak Ridge,NA,990 OAK RIDGE TURNPIKE OAK RIDGE TN 37830,36.024545109,-84.245085527
Erlanger Bledsoe,NA,71 WHEELERTOWN AVE PIKEVILLE TN 37367,35.620685972,-85.190868827
Starr Regional Medical Center,NA,1114 W MADISON AVE ATHENS TN 37371,35.440814994,-84.607352873
Tristar Skyline Medical Center,NA,3441 DICKERSON PIKE NASHVILLE TN 37207,36.2453409300001,-86.7496189839999
Kindred Hospital - Chattanooga,NA,709 WALNUT STREET CHATTANOOGA TN 37402,35.0475781420001,-85.307706217
Erlanger Medical Center,NA,975 EAST THIRD STREET CHATTANOOGA TN 37403,35.0488941250001,-85.2900474479999
Northcrest Medical Center,NA,100 NORTHCREST DRIVE SPRINGFIELD TN 37172,36.478480081,-86.886901925
Jellico Medical Center,NA,188 HOSPITAL LANE JELLICO TN 37762,36.573701364,-84.128543594
Johnson City Medical Center,NA,400 NORTH STATE OF FRANKLIN ROAD JOHNSON CITY TN 37604,36.307843099,-82.384562638
Williamson Medical Center,NA,4321 CAROTHERS PARKWAY FRANKLIN TN 37067,35.9161622550001,-86.819250043
Riverside Hospital Of Louisiana, Inc.,NA,13 HEYMAN LANE ALEXANDRIA LA 71306,31.3013320000001,-92.4873019999999
Rhea Medical Center,NA,9400 RHEA COUNTY HIGHWAY DAYTON TN 37321,35.529101344,-84.981779456
Saint Thomas Rutherford Hospital,NA,1700 MEDICAL CENTER PARKWAY MURFREESBORO TN 37130,35.860579123,-86.4250313759999
Tennova Healthcare Physicians Regional Medical Center,NA,900 EAST OAK HILL AVENUE KNOXVILLE TN 37917,35.992383583,-83.9268177559999
Bristol Regional Medical Center,NA,1 MEDICAL PARK BOULEVARD BRISTOL TN 37620,36.585516446,-82.256923265
Hancock County Hospital,NA,1519 MAIN STREET SNEEDVILLE TN 37869,36.533332982,-83.215108141
Holston Valley Medical Center,NA,130 WEST RAVINE ROAD KINGSPORT TN 37660,36.554103173,-82.554607246
Coffey County Hospital,NA,801 NORTH 4TH STREET BURLINGTON KS 66839,38.202271765,-95.7376996419999
Staten Island University Hospital - South,NA,375 SEGUINE AVENUE STATEN ISLAND NY 10305,40.5165692800001,-74.1964660899999
Hosp San Cristobal,NA,506 CARR ROAD COTO LAUREL PR 731,18.0396748470001,-66.5474067279999
Ochsner Rehabilitation Hospital,NA,2614 JEFFERSON HWY JEFFERSON LA 70121,29.9615421980001,-90.154221499
South Central Ks Med Center,NA,6401 PATTERSON PARKWAY ARKANSAS CITY KS 67005,37.132996817,-97.0385032889999
Wilson Medical Center,NA,REECE CAMPUS 2600 OTTAWA ROAD NEODESHA KS 66757,37.409570585,-95.708332152
The University Of Kansas Health System Great Bend Campus,NA,514 CLEVELAND STREET GREAT BEND KS 67530,38.356165688,-98.790712688
Community Hospital Onaga And St Marys Campus,NA,120 WEST 8TH STREET ONAGA KS 66521,39.4959886030001,-96.171428067
Avail Health Lake Charles Hospital,NA,3730 NELSON ROAD LAKE CHARLES LA 70605,30.190378373,-93.25037016
Hospital Buen Samaritano,NA,CARR 2 KM 141-1 AVE SEVERIANO CUEVAS 18 BO. CAIMITAL BAJO AGUADILLA PR 605,18.442809336,-67.1508851099999
Hosp Bella Vista,NA,STATE ROAD 349 MAYAGUEZ PR 681,18.1867640090001,-67.119196771
Hosp De La Concepcion,NA,CARR 2 KM 173 BO CAIN ALTO SAN GERMAN PR 683,18.0988091140001,-67.038164761
Centro De Salud Integral De Orocovis,NA,PR-155 AVE LUIS MUÑOZ MARIN OROCOVIS PUEBLO PR 720,18.226650998,-66.394345136
Hosp General Menonita - Cayey,NA,4 H MENDOZA STREET CAYEY PR 737,18.1240463010001,-66.147481522
Ashford Presbyterian Community Hospital Inc,NA,1451 AVENUE ASHFORD SAN JUAN PR 902,18.4559932870001,-66.065469531
Manati Medical Center Dr Alejandro Otero Lopez,NA,CALLE HERNANDEZ CARRION 668 MANATI PUEBLO PR 674,18.4345543470001,-66.4824950999999
Administracion De Servicios Medicos De Pr (Asem),NA,CENTRO MEDICO MONACILLO URBANO PR 922,18.3955074040001,-66.0728407889999
Utmb Angleton-Danbury Medical Center,NA,132 EAST HOSPITAL DRIVE ANGLETON TX 77515,29.183855399,-95.4054332869999
St. David'S Medical Center,NA,919 EAST 32ND STREET AUSTIN TX 78705,30.2898922050001,-97.7260463699999
Medical City Of Arlington,NA,3301 MATLOCK ROAD ARLINGTON TX 76015,32.6923253090001,-97.1127163799999
Texas Health Harris Methodist Hospital Azle,NA,108 DENVER TRAIL AZLE TX 76020,32.8809664820001,-97.533098647
Houston Methodist Baytown Hospital,NA,4401 GARTH ROAD BAYTOWN TX 77521,29.769116266,-94.979716606
Memorial Hermann Orthopedic And Spine Hospital,NA,5410 WEST LOOP SOUTH BELLAIRE TX 77401,29.723805424,-95.4612190399999
Bayside Community Hospital,NA,200 HOSPITAL DRIVE ANAHUAC TX 77514,29.752557402,-94.687446673
North Austin Medical Center,NA,12221 MOPAC SERVICE ROAD AUSTIN TX 78758,30.4114880280001,-97.7062274049999
St Marys Hospital,NA,400 NORTH PLEASANT AVENUE CENTRALIA IL 62801,38.530281432,-89.117206305
Hosp Oncologico Dr Isaac Gonzalez Martinez,NA,CENTRO MEDICO MONACILLO URBANO PR 919,18.3963367280001,-66.072533977
Hima San Pablo Cupey,NA,138 AVENUE WINSTON CHURCHILL SAN JUAN PR 926,18.372592346,-66.046225433
Union Correctional Institute Hospital,NA,7819 NW 228TH ST RAIFORD FL 32026,30.0670519110001,-82.193850377
Winnie Palmer Hospital For Women & Babies,NA,83 W MILLER ST ORLANDO FL 32806,28.5243398650001,-81.379153603
West Florida Rehabilitation Institute,NA,8391 N DAVIS HWY PENSACOLA FL 32514,30.5163401230001,-87.216863022
St Joseph'S Women'S Hospital,NA,3030 W DR ML KING JR BLVD TAMPA FL 33607,27.980230884,-82.492208722
Eastland Memorial Hospital,NA,304 SOUTH DAUGHERTY AVENUE EASTLAND TX 76448,32.3998206380001,-98.8211424789999
The Hospitals Of Providence East Campus,NA,3280 JOE BATTLE BOULEVARD EL PASO TX 79938,31.7903706280001,-106.264505532
Freestone Medical Center,NA,125 NEWMAN STREET FAIRFIELD TX 75840,31.725343744,-96.1705982349999
Connally Memorial Medical Center,NA,499 10TH STREET FLORESVILLE TX 78114,29.158500631,-98.174972586
Baylor Surgical Hospital At Fort Worth,NA,750 12TH AVENUE FORT WORTH TX 76104,32.736857639,-97.348979463
Baylor Scott & White Medical Center - Frisco,NA,5601 WARREN PARKWAY FRISCO TX 75034,33.104490212,-96.837825316
North Texas Medical Center,NA,1900 HOSPITAL BOULEVARD GAINESVILLE TX 76240,33.6463626400001,-97.1627319
Hill Country Memorial Hospital,NA,1020 STATE HIGHWAY 16 FREDERICKSBURG TX 78624,30.2625189980001,-98.881843268
Hunt Regional Medical Center Greenville,NA,4215 JOE RAMSEY BOULEVARD GREENVILLE TX 75401,33.122314078,-96.123970743
Memorial Hospital,NA,1110 N SARAH DEWITT DRIVE GRAPEVINE TX 78629,29.5175921050001,-97.429343177
Graham Regional Medical Center,NA,1301 MONTGOMERY ROAD GRAPEVINE TX 76450,33.0895821120001,-98.583967424
Lavaca Medical Center,NA,1400 NORTH TEXANA STREET HARLINGEN TX 77964,29.4574026650001,-96.938212833
Medina Regional Hospital,NA,3100 AVENUE E HOUSTON TX 78861,29.3346229570001,-99.134482544
Chi St Lukes Health Baylor College Of Medicine Medical Center,NA,6720 BERTNER STREET GRANBURY TX 77030,29.7077311640001,-95.4004449719999
Memorial Hermann Northeast Hospital,NA,18951 MEMORIAL NORTH HUMBLE TX 77091,29.995512041,-95.2761288889999
Christus Jasper Memorial Hospital,NA,1275 MARVIN HANCOCK DRIVE JASPER TX 75951,30.9078945300001,-94.009553306
Kimble Hospital,NA,349 REID RD JUNCTION TX 76849,30.498473076,-99.7805609119999
Memorial Hermann Katy Hospital,NA,23900 KATY FREEWAY KATY TX 77494,29.787310995,-95.786254532
Peterson Regional Medical Center,NA,551 HILL COUNTRY DIRVE KERRVILLE TX 78028,30.043465994,-99.152868896
Ascension Seton Medical Center Hays,NA,6001 KYLE PARKWAY KYLE TX 78640,30.0084099860001,-97.852977451
Covenant Hospital Levelland,NA,1900 COLLEGE AVENUE LEVELLAND TX 79336,33.572686515,-102.368897211
Baylor Scott And White Healthcare - Llano,NA,200 WEST OLLIE STREET LLANO TX 78643,30.742649623,-98.677655751
Christus Good Shepherd Medical Center - Longview,NA,700 EAST MARSHALL AVENUE LONGVIEW TX 75601,32.500749856,-94.7298539939999
Methodist Mckinney Hospital,NA,8000 WEST ELDORADO PARKWAY MCKINNEY TX 75070,33.176525285,-96.722295801
Mission Regional Medical Center,NA,900 SOUTH BRYAN ROAD MISSION TX 78572,26.1963482040001,-98.314317224
Titus Regional Medical Center,NA,2001 NORTH JEFFERSON AVENUE MOUNT PLEASANT TX 75455,33.175599387,-94.971174939
Houston Methodist Clear Lake Hospital,NA,18300 HOUSTON METHODIST DRIVE NASSAU BAY TX 77058,29.549248517,-95.086763633
Nacogdoches Medical Center,NA,4920 N. E. STALLINGS DRIVE NACOGDOCHES TX 75965,31.653144314,-94.653873115
Saint Clare'S Hospital,NA,915 EAST 5TH STREET ALTON IL 62002,38.8908049620001,-90.170929284
Odessa Regional Medical Center South Campus,NA,900 EAST 4TH STREET ODESSA TX 79761,31.85173303,-102.359572789
Palestine Regional Medical Center,NA,2900 SOUTH LOOP 256 PALESTINE TX 75801,31.7325966830001,-95.627227561
Paris Regional Medical Center - South Campus,NA,820 CLARKSVILLE STREET PARIS TX 75460,33.6596691980001,-95.547228929
Good Shepherd Medical Center - Linden,NA,404 NORTH KAUFMAN STREET LINDEN TX 75563,33.0139875080001,-94.3638835789999
Pampa Regional Medical Center,NA,ONE MEDICAL PLAZA PAMPA TX 79065,35.5724721620001,-100.964796468
Hca Houston Healthcare Southeast,NA,4000 SPENCER HIGHWAY PASADENA TX 77504,29.661060268,-95.183814699
Surgery Specialty Hospitals Of America Southeast Houston,NA,4301-B VISTA RD. PASADENA TX 77504,29.65912193,-95.177956514
St. Luke'S Patients Medical Center,NA,4600 EAST SAM HOUSTON PARKWAY SOUTH PASADENA TX 77505,29.6410979360001,-95.162214403
Covenant Hospital Plainview,NA,2601 DIMMITT ROAD PLAINVIEW TX 79072,34.206756715,-101.73294565
Reeves County Hospital,NA,2323 TEXAS STREET PECOS TX 79772,31.40118876,-103.514029758
Texas Health Presbyterian Hospital Plano,NA,6200 WEST PARKER ROAD PLANO TX 75093,33.0436635520001,-96.836470947
Frio Regional Hospital,NA,200 IH 35 SOUTH PEARSALL TX 78061,28.8963046480001,-99.117257195
Methodist Richardson Medical Center,NA,401 WEST CAMPBELL ROAD RICHARDSON TX 75080,32.974316527,-96.7266011149999
Oakbend Medical Center,NA,1705 JACKSON STREET RICHMOND TX 77469,29.5763288420001,-95.7709370219999
Baylor Scott And White Hospital - Round Rock,NA,300 UNIVERSITY BOULEVARD ROUND ROCK TX 78665,30.563395843,-97.684782286
Baylor Scott & White Medical Center - Lake Pointe,NA,6800 SCENIC DRIVE ROWLETT TX 75088,32.918019332,-96.508719073
Valley West Community Hospital,NA,1302 NORTH MAIN STREET SANDWICH IL 60548,41.657190128,-88.6207348189999
Southwest General Hospital,NA,7400 BARLITE BOULEVARD SAN ANTONIO TX 78224,29.3535371450001,-98.5447077169999
Foundation Surgical Hospital Of San Antonio,NA,9522 HUEBNER ROAD SAN ANTONIO TX 78240,29.5302401050001,-98.589751317
Methodist Stone Oak Hospital,NA,1139 EAST SONTERRA BOULEVARD SAN ANTONIO TX 78258,29.6158622130001,-98.474434773
Methodist Texsan Hospital,NA,6700 IH 10 WEST SAN ANTONIO TX 78201,29.4898639890001,-98.547572582
Baptist Health Madisonville,NA,900 HOSPITAL DRIVE MADISONVILLE KY 42431,37.340597841,-87.493349446
Adventist Healthcare Shady Grove Medical Center,NA,9901 MEDICAL CENTER DRIVE ROCKVILLE MD 20850,39.097844137,-77.197904227
Wilson N Jones Regional Medical Center,NA,500 NORTH HIGHLAND AVENUE SHERMAN TX 75092,33.6370973860001,-96.623821654
Memorial Hermann First Colony Hospital,NA,16000 SOUTHWEST FREEWAY SUGAR LAND TX 77479,29.598117061,-95.624348485
Memorial Hermann The Woodlands Hospital,NA,9250 PINECROFT DRIVE THE WOODLANDS TX 77380,30.1743354450001,-95.454341996
Hca Houston Healthcare Tomball,NA,605 HOLDERRIETH BOULEVARD TOMBALL TX 77375,30.087304078,-95.623695582
East Texas Medical Center Trinity,NA,317 PROSPECT DRIVE TRINITY TX 75862,30.9568636700001,-95.381049229
Uvalde Memorial Hospital,NA,1025 GARNER FIELD ROAD UVALDE TX 78801,29.2141196690001,-99.767837207
Ascension Providence Health Center,NA,6901 MEDICAL PARKWAY WACO TX 76702,31.5142506550001,-97.199490968
Houston Physicians' Hospital,NA,333 NORTH TEXAS AVENUE WEBSTER TX 77598,29.5338492720001,-95.126193077
Parkview Hospital,NA,901 SOUTH SWEETWATER STREET WHEELER TX 79096,35.4393396090001,-100.270359689
North Runnels Hospital,NA,7821 TEXAS 153 WINTERS TX 79567,31.949221514,-99.95913544
Baylor Medical Center At Uptown,NA,2727 EAST LEMMON AVENUE DALLAS TX 75204,32.8042463780001,-96.7949549529999
Baylor Scott & White Medical Center - Mckinney,NA,5252 WEST UNIVERSITY DRIVE MCKINNEY TX 75071,33.2209716130001,-96.6826010199999
Houston Methodist West Hospital,NA,18500 KATY FREEWAY HOUSTON TX 77094,29.7871566220001,-95.697828078
Christus St Vincent Regional Medical Center,NA,455 ST MICHAELS DRIVE SANTA FE NM 87505,35.659440986,-105.945780485
Houston Methodist Hosptial,NA,6565 FANNIN STREET HOUSTON TX 77030,29.7105231410001,-95.398938882
Houston Methodist Willowbrook Hospital,NA,18220 TOMBALL PARKWAY HOUSTON TX 77070,29.9664687710001,-95.551144526
Dallas Medical Center,NA,7 MEDICAL PARKWAY DALLAS TX 75381,32.915260532,-96.8697958659999
Renaissance Hospital Terrell,NA,1551 HIGHWAY 34 SOUTH TERRELL TX 75160,32.710613574,-96.279153043
Baylor Scott & White Emergency Hospital At Cedar Park,NA,900 EAST WHITESTONE BOULEVARD CEDAR PARK TX 78613,30.523313902,-97.819846307
Baylor Scott & White Medical Center - Lakeway,NA,100 MEDICAL PARKWAY AUSTIN TX 78738,30.3329410310001,-97.971529905
Baylor Scott & White Medical Center - Hillcrest,NA,100 HILLCREST MEDICAL BLVD WACO TX 76712,31.489183064,-97.1575429929999
Texas Health Harris Methodist Hospital Alliance,NA,10864 TEXAS HEALTH TRAIL FORT WORTH TX 76244,32.9306806070001,-97.309912276
St David'S Georgetown Hospital,NA,2000 SCENIC DR GEORGETOWN TX 78626,30.6260947490001,-97.688712477
St Luke'S Baptist Hospital,NA,7930 FLOYD CURL DR SAN ANTONIO TX 78229,29.5125494050001,-98.574910873
Harris Health System Lyndon B Johnson General Hosp,NA,5656 KELLEY ST HOUSTON TX 77026,29.811933277,-95.311881703
East Houston Regional Med Ctr,NA,13111 EAST FWY HOUSTON TX 77015,29.772366973,-95.193346659
Baptist Emergency Hospital - Zarzamora,NA,7719 IH 35 SOUTH SAN ANTONIO TX 78224,29.3518245540001,-98.5330211689999
Memorial Hermann Pearland Hospital,NA,16100 SOUTH FREEWAY PEARLAND TX 77584,29.563500446,-95.38867972
Baylor Scott & White Medical Center - Marble Falls,NA,810 W HIGHWAY 71 MARBLE FALLS TX 78654,30.5128112470001,-98.3045379609999
Eminent Medical Center,NA,1351 W PRESIDENT BUSH HWY RICHARDSON TX 75080,32.9991962760001,-96.755794183
Memorial Hospital For Cancer And Allied Diseases,NA,1275 YORK AVENUE NEW YORK NY 10021,40.7642743170001,-73.956595517
Scenic Mountain Medical Center,NA,1601 WEST 11TH PLACE BIG SPRING TX 79720,32.236377845,-101.49167553
Legent Hospital For Special Surgery,NA,4100 MAPLESHADE LANE PLANO TX 75075,33.0014018520001,-96.7718015569999
Baptist Emergency Hospital,NA,16977 I-35 NORTH SCHERTZ TX 78154,29.5942753090001,-98.290084819
Resolute Health,NA,555 CREEKSIDE CROSSING NEW BRAUNFELS TX 78130,29.7220058230001,-98.0699971719999
First Baptist Medical Center,NA,8111 MEADOW ROAD DALLAS TX 75231,32.88843795,-96.7665543049999
Steward Hillside Rehabilitation Hospital,NA,8747 SQUIRES LANE NE WARREN OH 44484,41.250753537,-80.732462101
Select Specialty Hospital - Youngstown,NA,1044 BELMONT AVE YOUNGSTOWN OH 44501,41.1139341860001,-80.658406384
Ridgeview Hospital,NA,17872 LINCOLN HIGHWAY MIDDLE POINT OH 45863,40.8774005160001,-84.478966946
Baylor Scott & White Medical Center At Waxahachie,NA,2400 N I-35 E WAXAHACHIE TX 75165,32.4275189150001,-96.857910078
Memorial Hermann Surgical Hospital First Colony,NA,16906 SOUTH WEST FREEWAY SUGAR LAND TX 77479,29.589903162,-95.636436147
Bay Area Regional Medical Center,NA,200 BLOSSOM STREET WEBSTER TX 77598,29.544771245,-95.1258639869999
South Texas Surgical Hospital,NA,6130 PARKWAY DRIVE CORPUS CHRISTI TX 79731,27.6860413630001,-97.375547123
First Texas Hospital,NA,9922 LOUETTA RD HOUSTON TX 77070,30.0005391020001,-95.562744832
Harris Health System Quentin Mease Hospital,NA,3601 NORTH MACGREGOR WAY HOUSTON TX 77004,29.711039079,-95.359806416
St Charles - Madras,NA,470 NE A STREET MADRAS OR 97741,44.637873733,-121.120725417
Faith Community Hospital,NA,215 CHISHOLM TRAIL JACKSBORO TX 76458,33.2306676860001,-98.166938649
The Corpus Christi Medical Center - Northwest,NA,13725 NORTHWEST BLVD CORPUS CHRISTI TX 78410,27.854917331,-97.635423165
Reagan Memorial Hospital,NA,1300 N MAIN AVE BIG LAKE TX 76932,31.204012538,-101.461017552
Medical City Of Alliance,NA,3101 NORTH TARRANT PARKWAY FORT WORTH TX 76177,32.9002925200001,-97.313928717
Johnston Memorial Hospital,NA,16000 JOHNSTON MEMORIAL DRIVE ABINGDON VA 24211,36.722913394,-81.912121461
St. Luke'S Rehabilitation,NA,600 N. ROBBINS ROAD BOISE ID 83702,43.6155876500001,-116.191576461
St. Luke'S Wood River Medical Center,NA,100 HOSPITAL DRIVE KETCHUM ID 83340,43.64832025,-114.35002103
Franciscan St Francis Health - Carmel,NA,12188 B NORTH MERIDIAN STREET CARMEL IN 46032,39.968032054,-86.158707019
Eskenazi Health,NA,720 ESKENAZI AVENUE INDIANAPOLIS IN 46254,39.777882758,-86.183985886
Lake Granbury Medical Center,NA,1310 PALUXY ROAD GREENVILLE TX 76048,32.4324893140001,-97.803848504
Limestone Medical Center,NA,701 MCCLINTIC DR. HAMLIN TX 76642,31.532711191,-96.5312111119999
Naval Medical Center Portsmouth,NA,620 JOHN PAUL JONES CIRCLE PORTSMOUTH VA 23708,36.845413927,-76.305767911
Lamb Healthcare Center,NA,1500 SOUTH SUNSET AVENUE LITTLEFIELD TX 79339,33.9117068690001,-102.344294913
University Of Minnesota Medical Center-Fairview-East Bank-Er,NA,500 HARVARD ST SE MINNEAPOLIS MN 55455,44.9723735160001,-93.231940521
Edward Plainfield,NA,24600 W 127TH ST PLAINFIELD IL 60585,41.6528205880001,-88.21737981
Texas Health Presbyterian Hospital Rockwall,NA,3150 HORIZON ROAD ROCKWALL TX 75032,32.8842894950001,-96.466225505
Va Medical Center - Kansas City,NA,4801 LINWOOD BLVD KANSAS CITY MO 64128,39.0640641040001,-94.526414395
Lawton Indian Hospital,NA,1515 LAWRIE TATUM ROAD LAWTON OK 73507,34.627598317,-98.3842419549999
Va Medical Center - Omaha,NA,4101 WOOLWORTH AVE OMAHA NE 68105,41.2425312890001,-95.974376496
Atrium Medical Center At Corinth,NA,3305 CORINTH PARKWAY CORINTH TX 78465,33.1536615270001,-97.0566744719999
Kindred Hospital Houston Northwest,NA,11297 FALLBROOK DRIVE HOUSTON TX 77065,29.924409622,-95.588246125
Hca Houston Heathcare Specialty Hospital,NA,1300 BINZ STREET HOUSTON TX 77004,29.7232392330001,-95.3870226939999
Se Texas Er And Hospital,NA,19211 MCKAY DRIVE HUMBLE TX 77338,29.9986754710001,-95.2762226569999
Pam Specialty Hospital Of Luling,NA,200 MEMORIAL DRIVE LULING TX 78648,29.674085915,-97.6550844019999
Dubuis Hospital Of Paris,NA,820 CLARKSVILLE STREET PARIS TX 75460,33.687847639,-95.548233491
Kindred Hospital - San Antonio,NA,3636 MEDICAL DRIVE SAN ANTONIO TX 78229,29.5224857920001,-98.55637881
Kindred Hospital Sugar Land,NA,1550 FIRST COLONY BOULEVARD SUGAR LAND TX 77479,29.6002324840001,-95.638261176
Atrium Medical Center,NA,11929 WEST AIRPORT BOULEVARD STAFFORD TX 77477,29.6468475090001,-95.588277013
Pam Specialty Hospital Of Victoria North,NA,102 MEDICAL DRIVE VICTORIA TX 77904,28.85499709,-97.021961071
Baylor Scott & White Continuing Care Hospital,NA,546 KEGLEY ROAD TEMPLE TX 76502,31.1182849250001,-97.3992927149999
George H. O'Brien, Jr. Va Medical Center,NA,300 VETERANS BLVD BIG SPRING TX 79720,32.2310386070001,-101.472769512
Allegiance Health Center Permian Basin,NA,207 TRADEWINDS BOULEVARD MIDLAND TX 79706,31.9817136670001,-102.15437099
Aurora Sinai Medical Center,NA,945 N 12TH ST MILWAUKEE WI 53223,43.042490135,-87.927810903
Va Health Care Center (Hcc) At Harlingen,NA,2601 VETERANS DR HARLINGEN TX 78550,26.171042152,-97.66727696
Nix Health Care System,NA,414 NAVARRO STREET SAN ANTONIO TX 78205,29.4256719860001,-98.4894159999999
Kahuku Medical Center,NA,56-117 PUALALEA ST KAHUKU HI 96731,21.676563792,-157.954296698
Kingwood Pines Hospital,NA,2001 LADBROOK DRIVE KINGWOOD TX 77339,30.0444976220001,-95.2299841399999
Sunrise Canyon,NA,1950 ASPEN AVENUE LUBBOCK TX 79408,33.572941638,-101.807502759
Austin Oaks Hospital,NA,1407 WEST STASSNEY LANE AUSTIN TX 78745,30.2115959710001,-97.792375791
Dallas Behavioral Healthcare Hospital Llc,NA,800 KIRNWOOD DRIVE DE SOTO TX 75115,32.642424299,-96.874760081
Oceans Behavioral Hospital Of The Permian Basin,NA,3300 SOUTH FM 1788 MIDLAND TX 79706,31.9228750400001,-102.222164807
Palms Behavioral Health,NA,613 VICTORIA LANE HARLINGEN TX 78550,26.163574216,-97.672162293
Behavioral Medicine At Renaissance,NA,5510 RAPHAEL DRIVE EDINBURG TX 78539,26.25310267,-98.20115591
The Paviliion,NA,7201 EVANS AMARILLO TX 79106,35.20065636,-101.918535481
Ut Health East Texas Behavioral Health Center,NA,4101 UNIVERSITY BOULEVARD TYLER TX 75701,32.311197813,-95.248767298
Georgetown Behavioral Health Institue,NA,3101 S AUSTIN AVE GEORGETOWN TX 78626,30.6149017650001,-97.6806318279999
North Hawaii Community Hospital,NA,67-1125 MAMALAHOA HWY KAMUELA HI 96743,20.0223088970001,-155.664420885
Chi St Joseph Rehab Hospital,NA,1600 JOSEPH DRIVE BRYAN TX 77802,30.6599329850001,-96.350714502
Encompass Health Rehabilitation Hospital Of Dallas,NA,7930 NORTHAVEN DALLAS TX 75230,32.90107033,-96.770522042
Healthsouth Rehabilitation Hospital Of Forth Worth,NA,1212 WEST LANCASTER FORT WORTH TX 76102,32.7473839990001,-97.339573397
Encompass Health Rehabilitation Of City View,NA,6701 OAKMONT BOULEVARD FORT WORTH TX 76132,32.6620118020001,-97.412790076
Encompass Health Rehabilitation Hospital Of Humble,NA,19002 MCKAY DRIVE HUMBLE TX 77338,29.9937352160001,-95.277329298
Christus Trinity Mother Frances Rehabilitation Hospital,NA,3131 TROUP HIGHWAY TYLER TX 75701,32.3148766420001,-95.277770102
Kindred Rehabilitation Hospital Clear Lake,NA,655 EAST MEDICAL CENTER BOULEVARD WEBSTER TX 77598,29.547590106,-95.117547439
Encompass Health Rehabilitation Hospital Of Wichita Falls,NA,3901 ARMORY ROAD WICHITA FALLS TX 76302,33.8738758700001,-98.48467593
Icare Rehabiltation Hospital,NA,3100 PETERS COLONY ROAD FLOWER MOUND TX 75022,33.035364085,-97.0772619209999
Baylor Institute For Rehabilitation At Northwest Dallas,NA,1340 EMPIRE CENTRAL DRIVE DALLAS TX 75247,32.826016807,-96.869863908
Pam Rehabilitation Hospital Of Victoria,NA,101 JAMES COLEMAN DRIVE VICTORIA TX 77904,28.855783595,-97.0226521719999
Las Palmas Rehabilitation Hospital,NA,300 WAYMORE EL PASO TX 79902,31.7890532270001,-106.508826044
Reba Mcentire Center For Rehabilitation,NA,1200 REBA MCENTIRE LANE DENISON TX 75020,33.770217679,-96.551281074
Warm Springs Rehabilitation Hospital Of Kyle,NA,5980 KYLE PARKWAY KYLE TX 78640,30.00839095,-97.856280143
Providence Hospital,NA,230 CALLE DEL NORTE LAREDO TX 78041,27.5563704190001,-99.491959317
Physicians Surgical Hospital - Quail Creek,NA,6819 PLUM CREEK DRIVE AMARILLO TX 79124,35.2104222130001,-101.912779538
Northwest Hills Surgical Hospital,NA,6818 AUSTIN CENTER BOULEVARD AUSTIN TX 78731,30.350513861,-97.7517162189999
Usmd Hospital At Arlington,NA,801 WEST I-20 ARLINGTON TX 76017,32.6798094120001,-97.117912238
Baylor Orthopedic And Spine Hospital At Arlington,NA,707 HIGHLANDER BOULEVARD ARLINGTON TX 76015,32.6828977770001,-97.116976767
University Of Texas M.D. Anderson Cancer Center,NA,1515 HOLCOMBE BOULEVARD, BOX 43 HOUSTON TX 77030,29.707031355,-95.397077171
Lubbock Heart Hospital,NA,4810 NORTH LOOP 289 LUBBOCK TX 79416,33.6032101070001,-101.915568819
South Texas Spine And Surgical Hospital,NA,18600 NORTH HARDY OAK BOULEVARD SAN ANTONIO TX 78258,29.613253425,-98.4773671469999
Baylor Heart And Vascular Center,NA,621 N. HALL STREET DALLAS TX 75226,32.788170651,-96.781194111
Legent Orthopedic + Spine,NA,5330 NORTH LOOP 1604 WEST SAN ANTONIO TX 78249,29.5907386740001,-98.590356874
Mcallen Heart Hospital,NA,1900 S D ST MCALLEN TX 78503,26.1836801590001,-98.218220533
Methodist Specialty & Transplant Hospital,NA,8026 FLOYD CURL DR SAN ANTONIO TX 78229,29.51422403,-98.575599241
Altus Baytown Hospital,NA,1455 MANOR DR BAYTOWN TX 77521,29.771962102,-94.981344157
Physicians Surgical Hospital - Panhandle Campus,NA,7100 WEST 9TH STREET AMARILLO TX 79106,35.20661691,-101.918690146
Shelby Baptist Medical Center,NA,1000 FIRST STREET, NORTH ALABASTER AL 35007,33.252364867,-86.8130430149999
Southeast Alabama Medical Center,NA,1108 ROSS CLARK CIRCLE DOTHAN AL 36301,31.2163036480001,-85.3636311239999
Medical Center Barbour,NA,820 WEST WASHINGTON STREET EUFAULA AL 36027,31.8886450800001,-85.156405419
Grove Hill Memorial Hospital,NA,295 JACKSON HIGHWAY S GROVE HILL AL 36451,31.694302296,-87.776024627
Atmore Community Hospital,NA,401 MEDICAL PARK DR. ATMORE AL 36502,31.0170238650001,-87.478798513
North Mississippi Medical Center - Hamilton,NA,1256 MILITARY STREET SOUTH HAMILTON AL 35570,34.1259771800001,-87.990768777
Decatur Morgan Hospital - Decatur Campus,NA,1201 SEVENTH STREET, SOUTHEAST DECATUR AL 35601,34.5903440910001,-86.971481526
Gadsden Regional Medical Center,NA,1007 GOODYEAR AVENUE GADSDEN AL 35903,34.0077362820001,-85.965982141
Shriners Hospital For Children,NA,1310 PUNAHOU ST HONOLULU HI 96826,21.30047125,-157.835143531
Mental Health Institute,NA,1800 NORTH 16TH STREET CLARINDA IA 51632,40.757823231,-95.035580545
Chi Health Mercy Hospital,NA,800 MERCY DRIVE COUNCIL BLUFFS IA 51502,41.2687867320001,-95.838794319
Grove Creek Medical Center,NA,350 NORTH MERIDIAN ST BLACKFOOT ID 83221,43.196302089,-112.354169572
Mountain View Hospital,NA,2325 CORONADO STREET IDAHO FALLS ID 83404,43.474366015,-111.987920703
Portneuf Medical Center,NA,777 HOSPITAL WAY POCATELLO ID 83201,42.8738530050001,-112.420762032
Genesis Medical Center Aledo,NA,409 NORTHWEST 9TH AVENUE ALEDO IL 61231,41.205523198,-90.759473441
Blue Island Hospital Co Llc Dba Metrosouth Medical Center,NA,12935 S GREGORY BLUE ISLAND IL 60406,41.6581141940001,-87.677830286
Presence Chicago Hospitals Network Dba Presence Saint Mary Of Nazareth Hospital Center,NA,2233 WEST DIVISION STREET CHICAGO IL 60622,41.9025326080001,-87.683276587
Advocate Trinity Hospital,NA,2320 E 93RD ST CHICAGO IL 60617,41.726504393,-87.567226181
Chicago Behavioral Hospital,NA,555 WILSON LANE DES PLAINES IL 60016,42.0434376480001,-87.8790341449999
Presance Chicago Hospitals Network Dba Presence Holy Family Medical Center,NA,100 NORTH RIVER ROAD DES PLAINES IL 60016,42.055597107,-87.890037611
Mercy Harvard Hospital,NA,901 GRANT STREET HARVARD IL 60033,42.426236913,-88.60704005
Hi-Desert Medical Center,NA,6601 WHITE FEATHER ROAD JOSHUA TREE CA 92252,34.131899548,-116.275139237
Edgemoor Geriatric Hospital,NA,655 PARK CENTER DRIVE SANTEE CA 92071,32.852345105,-116.974114223
Department Of State Hospital - Atascadero,NA,10333 EL CAMINO REAL ATASCADERO CA 93423,35.4627176130001,-120.634890612
Healdsburg District Hospital,NA,1375 UNIVERSITY STREET HEALDSBURG CA 95448,38.627095508,-122.864401979
Palmdale Regional Medical Center,NA,38600 MEDICAL CENTER DRIVE PALMDALE CA 93551,34.5828776330001,-118.144366873
San Dimas Community Hospital,NA,1350 WEST COVINA BOULEVARD SAN DIMAS CA 91773,34.0975093230001,-117.834635766
San Gabriel Valley Medical Center,NA,438 W. LAS TUNAS DRIVE SAN GABRIEL CA 91776,34.100868785,-118.105918785
Menifee Valley Medical Center,NA,28400 MCCALL BOULEVARD SUN CITY CA 92585,33.7195022650001,-117.168033041
Riverside County Regional Medical Center - D/P Aph,NA,9990 COUNTY FARM ROAD RIVERSIDE CA 92503,33.9190012010001,-117.459856099
Cirby Hills Behavioral Health,NA,101 CIRBY HILLS DRIVE ROSEVILLE CA 95661,38.7303997820001,-121.286174766
Fresno Heart And Surgical Hospital,NA,15 E. AUDUBON DRIVE FRESNO CA 93720,36.8601259070001,-119.788571731
San Joaquin Valley Rehabilitation Hospital,NA,7173 NO. SHARON AVENUE FRESNO CA 93720,36.8399745140001,-119.760553493
Jerold Phelps Community Hospital,NA,733 CEDAR STREET GARBERVILLE CA 95542,40.1016781590001,-123.792254629
Mammoth Hospital,NA,85 SIERRA PARK ROAD MAMMOTH LAKES CA 93546,37.643950209,-118.962328921
Chapman Medical Center,NA,2601 EAST CHAPMAN AVENUE ORANGE CA 92669,33.788614943,-117.826413156
Fountain Valley Rgnl Hosp And Med Ctr - Euclid,NA,17100 EUCLID STREET FOUNTAIN VALLEY CA 92708,33.714934772,-117.93596951
Stanislaus Surgical Hospital,NA,1421 OAKDALE ROAD MODESTO CA 95355,37.664801074,-120.958499923
Porterville Developmental Center,NA,26501 AVENUE 140 PORTERVILLE CA 93258,36.0397712180001,-118.983418775
Eastside Medical Center,NA,1700 MEDICAL WAY SNELLVILLE GA 30078,33.877568549,-84.021073872
Candler County Hospital,NA,400 CEDAR ROAD METTER GA 30439,32.4071325250001,-82.065524209
Select Specialty Hospital - Atlanta,NA,550 PEACHTREE STREET, NE ATLANTA GA 30308,33.7693198790001,-84.3855536199999
Putnam General Hospital,NA,101 LAKE OCONEE PARKWAY EATONTON GA 31024,33.3358661950001,-83.370945622
Colquitt Regional Medical Center,NA,3131 THOMASVILLE HWY, BOX 40 MOULTRIE GA 31768,31.125630098,-83.7803788539999
Evans Memorial Hospital,NA,200 NORTH RIVER STREET CLAXTON GA 30417,32.1658831440001,-81.899024445
Tulane - Lakeside Hospital,NA,4700 S I 10 SERVICE RD W METAIRIE LA 70001,29.9967562470001,-90.186633762
Miller County Hospital,NA,209 NORTH CUTHBERT STREET COLQUITT GA 31737,31.1754823090001,-84.735018316
Piedmont Rockdale Hospital,NA,1412 MILSTEAD AVENUE NE CONYERS GA 30012,33.6807238280001,-84.001575245
Warm Springs Medical Center,NA,5995 SPRING STREET WARM SPRINGS GA 31830,32.8896318980001,-84.683742464
Jefferson Hospital,NA,1067 PEACHTREE STREET LOUISVILLE GA 30434,33.009867494,-82.405545791
Jeff Davis Hospital,NA,163 SOUTH TALLAHSSEE, P O BOX 1690 HAZLEHURST GA 31539,31.8572098610001,-82.607146961
Union General Hospital,NA,35 HOSPITAL CIRCLE BLAIRSVILLE GA 30512,34.8861000000001,-83.9623
Jenkins County Hospital,NA,931 EAST WINTHROPE AVENUE MILLEN GA 30442,32.804239508,-81.9345370899999
Indiana University Health Transplant,NA,1701 N SENATE BLVD INDIANAPOLIS IN 46202,39.789801115,-86.163100641
Tulane Medical Center,NA,1415 TULANE AVE NEW ORLEANS LA 70112,29.954800113,-90.0769039149999
St. James Behavioral Health Hospital,NA,3136 S ST. LANDRY ROAD GONZALES LA 70737,30.2035020440001,-90.951952014
Franklin Foundation Hospital,NA,1097 NORTHWEST BLVD FRANKLIN LA 70538,29.800748013,-91.523828054
Physicians Medical Center,NA,218 CORPORATE DR HOUMA LA 70360,29.599562298,-90.748370778
Abrom Kaplan Memorial Hospital,NA,1310 W 7TH ST KAPLAN LA 70548,30.0080871660001,-92.297067684
St. James Parish Hospital,NA,1645 LUTCHER AVE LUTCHER LA 70071,30.051870889,-90.703984476
Cypress Grove Behavioral Health Llc,NA,4673 EUGENE WARE BLVD BASTROP LA 71220,32.7809985170001,-91.94289058
Villa Feliciana Medical Complex,NA,5002 HIGHWAY 10 JACKSON LA 70748,30.8354991190001,-91.158526702
East Carroll Parish Hospital,NA,336 N HOOD ST LAKE PROVIDENCE LA 71254,32.810569679,-91.172354437
Promise Hospital Of Louisiana-Bossier City Campus,NA,2525 VIKING DR BOSSIER CITY LA 71111,32.5560083890001,-93.716863672
Hardtner Medical Center,NA,1102 N PINE RD OLLA LA 71465,31.8606586220001,-92.275589672
Avoyelles Hospital,NA,4231 HIGHWAY 1192 MARKSVILLE LA 71351,31.1435451950001,-92.06294601
Pam Specialty Hospital Of Covington,NA,20050 CRESTWOOD BLVD COVINGTON LA 70433,30.4474054200001,-90.0731256459999
Hood Memorial Hospital,NA,301 WALNUT ST AMITE LA 70422,30.7325457760001,-90.513066314
Ochsner Medical Center-Baton Rouge,NA,17000 MEDICAL CENTER DR BATON ROUGE LA 70816,30.4425539470001,-90.999652184
Lake Charles Memorial Hospital For Women,NA,1900 W GAUTHIER RD LAKE CHARLES LA 70605,30.1406177580001,-93.247062746
Waukesha Cty Mental Hlth Ctr,NA,1501 AIRPORT RD WAUKESHA WI 53188,43.0260652200001,-88.232807816
Butte County Phf,NA,592 RIO LINDO AVENUE CHICO CA 95926,39.7545639690001,-121.847648767
Colorado River Medical Center,NA,1401 BAILEY AVENUE NEEDLES CA 92363,34.8330659210001,-114.617493964
Alvarado Hospital Medical Center,NA,6655 ALVARADO ROAD SAN DIEGO CA 92120,32.7765863870001,-117.057064596
Alvarado Parkway Institute B.H.S.,NA,7050 PARKWAY DRIVE LA MESA CA 91942,32.7746316660001,-117.044161793
Kindred Hospital - San Diego,NA,1940 EL CAJON BOULEVARD SAN DIEGO CA 92104,32.756383661,-117.144645403
Paradise Valley Hospital,NA,2400 EAST FOURTH STREET NATIONAL CITY CA 92050,32.6853405530001,-117.082336705
Laguna Honda Hospital And Rehabilitation Center,NA,375 LAGUNA HONDA BOULEVARD SAN FRANCISCO CA 94116,37.7743640780001,-122.425873352
Desoto Regional Health System,NA,207 JEFFERSON ST MANSFIELD LA 71052,32.035404129,-93.708147061
Eunice Extended Care Hospital,NA,3879 HIGHWAY 190 EUNICE LA 70535,30.4961559450001,-92.37533383
Langley Porter Psychiatric Institute,NA,401 PARNASSUS AVENUE SAN FRANCISCO CA 94143,37.763472349,-122.456850621
Ucsf Medical Center,NA,505 PARNASSUS AVENUE SAN FRANCISCO CA 94122,37.7630768510001,-122.457877178
Ucsf Medical Center At Mount Zion,NA,1600 DIVISADERO STREET SAN FRANCISCO CA 94115,37.7849197100001,-122.439147211
Coast Plaza Doctors Hospital,NA,13100 SOUTH STUDEBAKER ROAD NORWALK CA 90650,33.912693115,-118.09882162
Community Hospital Of Huntington Park,NA,2623 EAST SLAUSON AVENUE HUNTINGTON PARK CA 90255,33.989489571,-118.224189855
Los Angeles County Olive View-Ucla Medical Center,NA,14445 OLIVE VIEW DRIVE SYLMAR CA 91342,34.325871722,-118.445764102
Docs Surgical Hospital,NA,6000 SAN VICENTE BOULEVARD LOS ANGELES CA 90036,34.0573663500001,-118.362458577
Olympia Medical Center,NA,5900 WEST OLYMPIA BLVD LOS ANGELES CA 90036,34.0572922740001,-118.360527347
Pacific Alliance Medical Center, Inc.,NA,531 WEST COLLEGE STREET LOS ANGELES CA 90012,34.0648800160001,-118.239227761
West Hills Hospital And Medical Center,NA,7300 MEDICAL CENTER DRIVE WEST HILLS CA 91307,34.202859415,-118.62862367
Hazel Hawkins Memorial Hospital,NA,911 SUNSET DRIVE HOLLISTER CA 95023,36.8342012480001,-121.386193641
Corona Regional Medical Center-Main,NA,800 SOUTH MAIN STREET CORONA CA 92882,33.8730376980001,-117.568320926
Patients' Hospital Of Redding,NA,2900 EUREKA WAY REDDING CA 96001,40.5859216490001,-122.416830896
Kentfield Rehabilitation Hospital,NA,1125 SIR FRANCIS DRAKE BLVD KENTFIELD CA 94914,37.958706218,-122.552495864
Surprise Valley Community Hospital,NA,741 N. MAIN STREET CEDARVILLE CA 96104,41.5314890670001,-120.171428084
Fresno Surgical Hospital,NA,6125 NORTH FRESNO STREET FRESNO CA 93710,36.8249140890001,-119.78216158
Trinity Hospital,NA,60 B EASTER AVENUE WEAVERVILLE CA 96093,40.7380835070001,-122.939656929
Pacific Orange Hospital, Llc,NA,3350 WEST BALL ROAD ANAHEIM CA 92804,33.815846992,-118.007181145
Garden Grove Hospital And Medical Center,NA,12601 GARDEN GROVE BLVD. GARDEN GROVE CA 92643,33.7749859690001,-117.913092884
West Anaheim Medical Center,NA,3033 WEST ORANGE AVENUE ANAHEIM CA 92804,33.8253852140001,-117.995073632
Oak Valley District Hospital (2-Rh),NA,350 SOUTH OAK STREET OAKDALE CA 95361,37.7576162720001,-120.860996573
Kaweah Delta Rehabilitation Hospital,NA,840 SOUTH AKERS VISALIA CA 93277,36.3226068330001,-119.34793469
West Paces Medical Center,NA,3200 HOWELL MILL ROAD ATLANTA GA 30327,33.8425244310001,-84.427087362
Youth Villages - Inner Harbour Campus,NA,4685 DORSETT SHOALS ROAD DOUGLASVILLE GA 30135,33.677688952,-84.7339195439999
Washington County Hospital,NA,958 U S HIGHWAY 64 EAST PLYMOUTH NC 27962,35.8627820830001,-76.729283681
Doctor'S Hospital At Deer Creek,NA,815 S 10TH ST LEESVILLE LA 71446,31.1356353470001,-93.268822748
Southeast Regional Medical Center,NA,719 AVENUE G KENTWOOD LA 70444,30.937128638,-90.5192469679999
Dequincy Memorial Hospital,NA,110 W 4TH ST DEQUINCY LA 70633,30.452520835,-93.436424441
Alvarado Hospital Medical Center,NA,6645 ALVARADO ROAD SAN DIEGO CA 92120,32.7768583530001,-117.057681266
California Pacific Med Ctr-Davies Campus,NA,601 DUBOCE AVENUE SAN FRANCISCO CA 94117,37.768684282,-122.434530253
California Pacific Medical Center - St. Luke'S Campus,NA,3555 CESAR CHAVEZ STREET SAN FRANCISCO CA 94110,37.747717858,-122.420767899
California Rehabilitation Institute, Llc,NA,2070 CENTURY PARK EAST LOS ANGELES CA 90067,34.059102925,-118.41186805
Doctors Medical Center-Behavioral Health Department,NA,1501 CLAUS ROAD MODESTO CA 95355,37.6658240080001,-120.922231928
Southern California Hospital At Van Nuys D/P Aph,NA,14433 EMELITA STREET VAN NUYS CA 91401,34.176900695,-118.447490834
Department Of State Hospital - Coalinga,NA,24511 WEST JAYNE AVENUE COALINGA CA 93210,36.1335482900001,-120.240445956
Mayers Memorial Hospital,NA,43563 STATE HWY. 299 E FALL RIVER MILLS CA 96028,41.023889361,-121.424054412
Santa Monica - Ucla Medical Center & Orthopaedic Hospital,NA,1250 16TH STREET SANTA MONICA CA 90404,34.027708681,-118.486892397
Shasta County P H F,NA,2640 BRESLAUER WAY REDDING CA 96001,40.550135106,-122.380488223
Telecare Santa Cruz Phf,NA,2250 SOQUEL AVE SANTA CRUZ CA 95062,36.9833689210001,-121.993947054
Ventura County Medical Center - Santa Paula Hospital,NA,825 NORTH 10TH STREET SANTA PAULA CA 93060,34.366446695,-119.064914805
Piedmont Columdus Regional Northside,NA,100 FRIST COURT COLUMBUS GA 31909,32.5345247990001,-84.951212572
Regency Hospital Company Of Macon, Llc,NA,535 COLISEUM DRIVE MACON GA 31217,32.847705239,-83.6152774729999
Chatuge Regional Hospital,NA,110 S MAIN STREET HIAWASSEE GA 30546,34.946576458,-83.753915298
Candler Hospital,NA,5353 REYNOLDS STREET SAVANNAH GA 31412,32.0281666670001,-81.1001092509999
Adventhealth Murray,NA,707 OLD DALTON ELLIJAY ROAD, PO BOX 1406 CHATSWORTH GA 30705,34.780041,-84.783175447
Tanner Medical Center - Carrollton,NA,705 DIXIE STREET CARROLLTON GA 30117,33.569477717,-85.0752261979999
Piedmont Fayette Hospital,NA,1255 HIGHWAY 54 WEST FAYETTEVILLE GA 30214,33.452147106,-84.507989992
Roosevelt Warm Springs Rehabilitation Hospital,NA,6135 ROOSEVELT HIGHWAY WARM SPRINGS GA 31830,32.8873263890001,-84.694070009
Riverwoods Behavioral Health System,NA,223 MEDICAL CENTER DRIVE RIVERDALE GA 30274,33.582212957,-84.390716705
